header:
  stamp:
    sec: 1724939760
    nanosec: 97690519
  frame_id: ''
raw: mid:-1;x:-100;y:-100;z:-100;mpry:-1,-1,-1;pitch:0;roll:0;yaw:0;vgx:0;vgy:0;vgz:-2;templ:67;temph:69;tof:10;h:0;bat:91;baro:105.9...
sdk: 2
pitch: 0
roll: 0
yaw: 0
vgx: 0
vgy: 0
vgz: -2
templ: 67
temph: 69
tof: 10
h: 0
bat: 91
baro: 105.93000030517578
time: 0
agx: -27.0
agy: -20.0
agz: -1251.0
mid: -1
x: -100
y: -100
z: -100
---
header:
  stamp:
    sec: 1724939760
    nanosec: 200067103
  frame_id: ''
raw: mid:-1;x:-100;y:-100;z:-100;mpry:-1,-1,-1;pitch:0;roll:1;yaw:0;vgx:0;vgy:0;vgz:-5;templ:67;temph:69;tof:11;h:0;bat:91;baro:105.9...
sdk: 2
pitch: 0
roll: 1
yaw: 0
vgx: 0
vgy: 0
vgz: -5
templ: 67
temph: 69
tof: 11
h: 0
bat: 91
baro: 105.9800033569336
time: 0
agx: -43.0
agy: 3.0
agz: -1193.0
mid: -1
x: -100
y: -100
z: -100
---
header:
  stamp:
    sec: 1724939760
    nanosec: 255183454
  frame_id: ''
raw: mid:-1;x:-100;y:-100;z:-100;mpry:-1,-1,-1;pitch:0;roll:1;yaw:0;vgx:0;vgy:0;vgz:-7;templ:67;temph:69;tof:20;h:0;bat:91;baro:106.3...
sdk: 2
pitch: 0
roll: 1
yaw: 0
vgx: 0
vgy: 0
vgz: -7
templ: 67
temph: 69
tof: 20
h: 0
bat: 91
baro: 106.33000183105469
time: 0
agx: -26.0
agy: -6.0
agz: -1052.0
mid: -1
x: -100
y: -100
z: -100
---
header:
  stamp:
    sec: 1724939760
    nanosec: 359116228
  frame_id: ''
raw: mid:-1;x:-100;y:-100;z:-100;mpry:-1,-1,-1;pitch:-1;roll:0;yaw:0;vgx:0;vgy:0;vgz:-7;templ:67;temph:69;tof:29;h:10;bat:91;baro:106...
sdk: 2
pitch: -1
roll: 0
yaw: 0
vgx: 0
vgy: 0
vgz: -7
templ: 67
temph: 69
tof: 29
h: 10
bat: 91
baro: 106.47000122070312
time: 0
agx: -6.0
agy: -31.0
agz: -998.0
mid: -1
x: -100
y: -100
z: -100
---
header:
  stamp:
    sec: 1724939760
    nanosec: 462235577
  frame_id: ''
raw: mid:-1;x:-100;y:-100;z:-100;mpry:-1,-1,-1;pitch:-1;roll:0;yaw:0;vgx:0;vgy:0;vgz:-8;templ:67;temph:69;tof:38;h:20;bat:91;baro:106...
sdk: 2
pitch: -1
roll: 0
yaw: 0
vgx: 0
vgy: 0
vgz: -8
templ: 67
temph: 69
tof: 38
h: 20
bat: 91
baro: 106.58000183105469
time: 1
agx: 1.0
agy: -27.0
agz: -944.0
mid: -1
x: -100
y: -100
z: -100
---
header:
  stamp:
    sec: 1724939760
    nanosec: 559331680
  frame_id: ''
raw: mid:-1;x:-100;y:-100;z:-100;mpry:-1,-1,-1;pitch:-1;roll:0;yaw:0;vgx:0;vgy:0;vgz:-7;templ:67;temph:69;tof:46;h:20;bat:91;baro:106...
sdk: 2
pitch: -1
roll: 0
yaw: 0
vgx: 0
vgy: 0
vgz: -7
templ: 67
temph: 69
tof: 46
h: 20
bat: 91
baro: 106.70999908447266
time: 1
agx: -31.0
agy: -18.0
agz: -933.0
mid: -1
x: -100
y: -100
z: -100
---
header:
  stamp:
    sec: 1724939760
    nanosec: 662309915
  frame_id: ''
raw: mid:-1;x:-100;y:-100;z:-100;mpry:-1,-1,-1;pitch:-1;roll:1;yaw:0;vgx:0;vgy:0;vgz:-6;templ:67;temph:69;tof:54;h:30;bat:91;baro:106...
sdk: 2
pitch: -1
roll: 1
yaw: 0
vgx: 0
vgy: 0
vgz: -6
templ: 67
temph: 69
tof: 54
h: 30
bat: 91
baro: 106.72000122070312
time: 1
agx: -12.0
agy: -2.0
agz: -903.0
mid: -1
x: -100
y: -100
z: -100
---
header:
  stamp:
    sec: 1724939760
    nanosec: 767804160
  frame_id: ''
raw: mid:-1;x:-100;y:-100;z:-100;mpry:-1,-1,-1;pitch:-1;roll:1;yaw:0;vgx:0;vgy:0;vgz:-5;templ:67;temph:69;tof:61;h:30;bat:91;baro:106...
sdk: 2
pitch: -1
roll: 1
yaw: 0
vgx: 0
vgy: 0
vgz: -5
templ: 67
temph: 69
tof: 61
h: 30
bat: 91
baro: 106.79000091552734
time: 1
agx: 10.0
agy: -17.0
agz: -876.0
mid: -1
x: -100
y: -100
z: -100
---
header:
  stamp:
    sec: 1724939760
    nanosec: 862667446
  frame_id: ''
raw: mid:-1;x:-100;y:-100;z:-100;mpry:-1,-1,-1;pitch:0;roll:0;yaw:0;vgx:0;vgy:0;vgz:-4;templ:67;temph:69;tof:66;h:40;bat:91;baro:106....
sdk: 2
pitch: 0
roll: 0
yaw: 0
vgx: 0
vgy: 0
vgz: -4
templ: 67
temph: 69
tof: 66
h: 40
bat: 91
baro: 106.87999725341797
time: 1
agx: -29.0
agy: -7.0
agz: -893.0
mid: -1
x: -100
y: -100
z: -100
---
header:
  stamp:
    sec: 1724939760
    nanosec: 964441672
  frame_id: ''
raw: mid:-1;x:-100;y:-100;z:-100;mpry:-1,-1,-1;pitch:0;roll:0;yaw:0;vgx:0;vgy:0;vgz:-3;templ:67;temph:69;tof:71;h:40;bat:91;baro:106....
sdk: 2
pitch: 0
roll: 0
yaw: 0
vgx: 0
vgy: 0
vgz: -3
templ: 67
temph: 69
tof: 71
h: 40
bat: 91
baro: 106.9000015258789
time: 1
agx: -32.0
agy: 2.0
agz: -898.0
mid: -1
x: -100
y: -100
z: -100
---
header:
  stamp:
    sec: 1724939761
    nanosec: 66493678
  frame_id: ''
raw: mid:-1;x:-100;y:-100;z:-100;mpry:-1,-1,-1;pitch:0;roll:0;yaw:0;vgx:0;vgy:0;vgz:-2;templ:67;temph:69;tof:74;h:40;bat:91;baro:106....
sdk: 2
pitch: 0
roll: 0
yaw: 0
vgx: 0
vgy: 0
vgz: -2
templ: 67
temph: 69
tof: 74
h: 40
bat: 91
baro: 106.87999725341797
time: 1
agx: -28.0
agy: 0.0
agz: -915.0
mid: -1
x: -100
y: -100
z: -100
---
header:
  stamp:
    sec: 1724939761
    nanosec: 169039897
  frame_id: ''
raw: mid:-1;x:-100;y:-100;z:-100;mpry:-1,-1,-1;pitch:-1;roll:0;yaw:0;vgx:0;vgy:0;vgz:-1;templ:67;temph:69;tof:77;h:50;bat:91;baro:106...
sdk: 2
pitch: -1
roll: 0
yaw: 0
vgx: 0
vgy: 0
vgz: -1
templ: 67
temph: 69
tof: 77
h: 50
bat: 91
baro: 106.93000030517578
time: 1
agx: 2.0
agy: -17.0
agz: -936.0
mid: -1
x: -100
y: -100
z: -100
---
header:
  stamp:
    sec: 1724939761
    nanosec: 270643892
  frame_id: ''
raw: mid:-1;x:-100;y:-100;z:-100;mpry:-1,-1,-1;pitch:-1;roll:0;yaw:0;vgx:0;vgy:0;vgz:-1;templ:67;temph:69;tof:79;h:50;bat:91;baro:106...
sdk: 2
pitch: -1
roll: 0
yaw: 0
vgx: 0
vgy: 0
vgz: -1
templ: 67
temph: 69
tof: 79
h: 50
bat: 91
baro: 106.91000366210938
time: 1
agx: -44.0
agy: 10.0
agz: -966.0
mid: -1
x: -100
y: -100
z: -100
---
header:
  stamp:
    sec: 1724939761
    nanosec: 372479794
  frame_id: ''
raw: mid:-1;x:-100;y:-100;z:-100;mpry:-1,-1,-1;pitch:-1;roll:0;yaw:0;vgx:0;vgy:0;vgz:0;templ:67;temph:69;tof:82;h:50;bat:90;baro:106....
sdk: 2
pitch: -1
roll: 0
yaw: 0
vgx: 0
vgy: 0
vgz: 0
templ: 67
temph: 69
tof: 82
h: 50
bat: 90
baro: 106.93000030517578
time: 1
agx: -35.0
agy: 4.0
agz: -974.0
mid: -1
x: -100
y: -100
z: -100
---
header:
  stamp:
    sec: 1724939761
    nanosec: 474388550
  frame_id: ''
raw: mid:-1;x:-100;y:-100;z:-100;mpry:-1,-1,-1;pitch:-1;roll:0;yaw:0;vgx:0;vgy:0;vgz:0;templ:67;temph:69;tof:83;h:50;bat:90;baro:106....
sdk: 2
pitch: -1
roll: 0
yaw: 0
vgx: 0
vgy: 0
vgz: 0
templ: 67
temph: 69
tof: 83
h: 50
bat: 90
baro: 106.97000122070312
time: 2
agx: -22.0
agy: -8.0
agz: -969.0
mid: -1
x: -100
y: -100
z: -100
---
header:
  stamp:
    sec: 1724939761
    nanosec: 576657366
  frame_id: ''
raw: mid:-1;x:-100;y:-100;z:-100;mpry:-1,-1,-1;pitch:-1;roll:0;yaw:0;vgx:0;vgy:0;vgz:0;templ:67;temph:69;tof:85;h:50;bat:90;baro:107....
sdk: 2
pitch: -1
roll: 0
yaw: 0
vgx: 0
vgy: 0
vgz: 0
templ: 67
temph: 69
tof: 85
h: 50
bat: 90
baro: 107.04000091552734
time: 2
agx: -41.0
agy: 16.0
agz: -974.0
mid: -1
x: -100
y: -100
z: -100
---
header:
  stamp:
    sec: 1724939761
    nanosec: 678536147
  frame_id: ''
raw: mid:-1;x:-100;y:-100;z:-100;mpry:-1,-1,-1;pitch:-1;roll:0;yaw:0;vgx:0;vgy:0;vgz:0;templ:67;temph:69;tof:86;h:50;bat:90;baro:107....
sdk: 2
pitch: -1
roll: 0
yaw: 0
vgx: 0
vgy: 0
vgz: 0
templ: 67
temph: 69
tof: 86
h: 50
bat: 90
baro: 107.08999633789062
time: 2
agx: -50.0
agy: 16.0
agz: -978.0
mid: -1
x: -100
y: -100
z: -100
---
header:
  stamp:
    sec: 1724939761
    nanosec: 783033807
  frame_id: ''
raw: mid:-1;x:-100;y:-100;z:-100;mpry:-1,-1,-1;pitch:-1;roll:0;yaw:0;vgx:0;vgy:0;vgz:0;templ:67;temph:69;tof:87;h:50;bat:90;baro:107....
sdk: 2
pitch: -1
roll: 0
yaw: 0
vgx: 0
vgy: 0
vgz: 0
templ: 67
temph: 69
tof: 87
h: 50
bat: 90
baro: 107.08999633789062
time: 2
agx: -3.0
agy: -6.0
agz: -1006.0
mid: -1
x: -100
y: -100
z: -100
---
header:
  stamp:
    sec: 1724939761
    nanosec: 888479492
  frame_id: ''
raw: mid:-1;x:-100;y:-100;z:-100;mpry:-1,-1,-1;pitch:-2;roll:0;yaw:0;vgx:0;vgy:0;vgz:0;templ:67;temph:69;tof:87;h:60;bat:90;baro:107....
sdk: 2
pitch: -2
roll: 0
yaw: 0
vgx: 0
vgy: 0
vgz: 0
templ: 67
temph: 69
tof: 87
h: 60
bat: 90
baro: 107.08000183105469
time: 2
agx: -26.0
agy: 3.0
agz: -977.0
mid: -1
x: -100
y: -100
z: -100
---
header:
  stamp:
    sec: 1724939761
    nanosec: 989588393
  frame_id: ''
raw: mid:-1;x:-100;y:-100;z:-100;mpry:-1,-1,-1;pitch:-2;roll:0;yaw:0;vgx:0;vgy:0;vgz:0;templ:67;temph:69;tof:89;h:60;bat:90;baro:107....
sdk: 2
pitch: -2
roll: 0
yaw: 0
vgx: 0
vgy: 0
vgz: 0
templ: 67
temph: 69
tof: 89
h: 60
bat: 90
baro: 107.08000183105469
time: 2
agx: -17.0
agy: -7.0
agz: -998.0
mid: -1
x: -100
y: -100
z: -100
---
header:
  stamp:
    sec: 1724939762
    nanosec: 88461198
  frame_id: ''
raw: mid:-1;x:-100;y:-100;z:-100;mpry:-1,-1,-1;pitch:-1;roll:0;yaw:0;vgx:0;vgy:0;vgz:0;templ:67;temph:69;tof:89;h:60;bat:90;baro:107....
sdk: 2
pitch: -1
roll: 0
yaw: 0
vgx: 0
vgy: 0
vgz: 0
templ: 67
temph: 69
tof: 89
h: 60
bat: 90
baro: 107.08999633789062
time: 2
agx: -36.0
agy: 3.0
agz: -983.0
mid: -1
x: -100
y: -100
z: -100
---
header:
  stamp:
    sec: 1724939762
    nanosec: 190499202
  frame_id: ''
raw: mid:-1;x:-100;y:-100;z:-100;mpry:-1,-1,-1;pitch:-1;roll:0;yaw:0;vgx:0;vgy:0;vgz:0;templ:67;temph:69;tof:90;h:60;bat:90;baro:107....
sdk: 2
pitch: -1
roll: 0
yaw: 0
vgx: 0
vgy: 0
vgz: 0
templ: 67
temph: 69
tof: 90
h: 60
bat: 90
baro: 107.02999877929688
time: 2
agx: -26.0
agy: 3.0
agz: -974.0
mid: -1
x: -100
y: -100
z: -100
---
header:
  stamp:
    sec: 1724939762
    nanosec: 292929504
  frame_id: ''
raw: mid:-1;x:-100;y:-100;z:-100;mpry:-1,-1,-1;pitch:-1;roll:0;yaw:0;vgx:0;vgy:0;vgz:0;templ:67;temph:69;tof:89;h:60;bat:90;baro:107....
sdk: 2
pitch: -1
roll: 0
yaw: 0
vgx: 0
vgy: 0
vgz: 0
templ: 67
temph: 69
tof: 89
h: 60
bat: 90
baro: 107.06999969482422
time: 2
agx: -14.0
agy: -7.0
agz: -997.0
mid: -1
x: -100
y: -100
z: -100
---
header:
  stamp:
    sec: 1724939762
    nanosec: 394464312
  frame_id: ''
raw: mid:-1;x:-100;y:-100;z:-100;mpry:-1,-1,-1;pitch:-1;roll:0;yaw:0;vgx:0;vgy:0;vgz:0;templ:67;temph:69;tof:89;h:60;bat:90;baro:107....
sdk: 2
pitch: -1
roll: 0
yaw: 0
vgx: 0
vgy: 0
vgz: 0
templ: 67
temph: 69
tof: 89
h: 60
bat: 90
baro: 107.05999755859375
time: 2
agx: -12.0
agy: -1.0
agz: -989.0
mid: -1
x: -100
y: -100
z: -100
---
header:
  stamp:
    sec: 1724939762
    nanosec: 496408445
  frame_id: ''
raw: mid:-1;x:-100;y:-100;z:-100;mpry:-1,-1,-1;pitch:-1;roll:0;yaw:0;vgx:0;vgy:0;vgz:0;templ:67;temph:69;tof:89;h:60;bat:90;baro:107....
sdk: 2
pitch: -1
roll: 0
yaw: 0
vgx: 0
vgy: 0
vgz: 0
templ: 67
temph: 69
tof: 89
h: 60
bat: 90
baro: 107.0199966430664
time: 3
agx: -1.0
agy: -9.0
agz: -980.0
mid: -1
x: -100
y: -100
z: -100
---
header:
  stamp:
    sec: 1724939762
    nanosec: 598846604
  frame_id: ''
raw: mid:-1;x:-100;y:-100;z:-100;mpry:-1,-1,-1;pitch:-1;roll:0;yaw:0;vgx:0;vgy:0;vgz:0;templ:67;temph:69;tof:89;h:60;bat:90;baro:107....
sdk: 2
pitch: -1
roll: 0
yaw: 0
vgx: 0
vgy: 0
vgz: 0
templ: 67
temph: 69
tof: 89
h: 60
bat: 90
baro: 107.05000305175781
time: 3
agx: -35.0
agy: 10.0
agz: -998.0
mid: -1
x: -100
y: -100
z: -100
---
header:
  stamp:
    sec: 1724939762
    nanosec: 700434155
  frame_id: ''
raw: mid:-1;x:-100;y:-100;z:-100;mpry:-1,-1,-1;pitch:-1;roll:0;yaw:0;vgx:0;vgy:0;vgz:0;templ:67;temph:69;tof:88;h:60;bat:90;baro:107....
sdk: 2
pitch: -1
roll: 0
yaw: 0
vgx: 0
vgy: 0
vgz: 0
templ: 67
temph: 69
tof: 88
h: 60
bat: 90
baro: 107.0999984741211
time: 3
agx: -36.0
agy: -9.0
agz: -979.0
mid: -1
x: -100
y: -100
z: -100
---
header:
  stamp:
    sec: 1724939762
    nanosec: 802485811
  frame_id: ''
raw: mid:-1;x:-100;y:-100;z:-100;mpry:-1,-1,-1;pitch:-1;roll:0;yaw:0;vgx:0;vgy:0;vgz:0;templ:67;temph:69;tof:87;h:60;bat:90;baro:107....
sdk: 2
pitch: -1
roll: 0
yaw: 0
vgx: 0
vgy: 0
vgz: 0
templ: 67
temph: 69
tof: 87
h: 60
bat: 90
baro: 107.0999984741211
time: 3
agx: -22.0
agy: -1.0
agz: -996.0
mid: -1
x: -100
y: -100
z: -100
---
header:
  stamp:
    sec: 1724939762
    nanosec: 904558461
  frame_id: ''
raw: mid:-1;x:-100;y:-100;z:-100;mpry:-1,-1,-1;pitch:-1;roll:0;yaw:0;vgx:0;vgy:0;vgz:0;templ:67;temph:69;tof:87;h:60;bat:90;baro:107....
sdk: 2
pitch: -1
roll: 0
yaw: 0
vgx: 0
vgy: 0
vgz: 0
templ: 67
temph: 69
tof: 87
h: 60
bat: 90
baro: 107.04000091552734
time: 3
agx: -58.0
agy: 2.0
agz: -974.0
mid: -1
x: -100
y: -100
z: -100
---
header:
  stamp:
    sec: 1724939763
    nanosec: 6397592
  frame_id: ''
raw: mid:-1;x:-100;y:-100;z:-100;mpry:-1,-1,-1;pitch:-1;roll:0;yaw:1;vgx:0;vgy:0;vgz:0;templ:67;temph:70;tof:86;h:60;bat:90;baro:107....
sdk: 2
pitch: -1
roll: 0
yaw: 1
vgx: 0
vgy: 0
vgz: 0
templ: 67
temph: 70
tof: 86
h: 60
bat: 90
baro: 107.0999984741211
time: 3
agx: -35.0
agy: -2.0
agz: -1001.0
mid: -1
x: -100
y: -100
z: -100
---
header:
  stamp:
    sec: 1724939763
    nanosec: 108570663
  frame_id: ''
raw: mid:-1;x:-100;y:-100;z:-100;mpry:-1,-1,-1;pitch:-1;roll:0;yaw:1;vgx:0;vgy:0;vgz:0;templ:67;temph:70;tof:85;h:60;bat:90;baro:107....
sdk: 2
pitch: -1
roll: 0
yaw: 1
vgx: 0
vgy: 0
vgz: 0
templ: 67
temph: 70
tof: 85
h: 60
bat: 90
baro: 107.05000305175781
time: 3
agx: -2.0
agy: -1.0
agz: -999.0
mid: -1
x: -100
y: -100
z: -100
---
header:
  stamp:
    sec: 1724939763
    nanosec: 210453689
  frame_id: ''
raw: mid:-1;x:-100;y:-100;z:-100;mpry:-1,-1,-1;pitch:-1;roll:0;yaw:1;vgx:0;vgy:0;vgz:0;templ:67;temph:70;tof:84;h:60;bat:90;baro:106....
sdk: 2
pitch: -1
roll: 0
yaw: 1
vgx: 0
vgy: 0
vgz: 0
templ: 67
temph: 70
tof: 84
h: 60
bat: 90
baro: 106.98999786376953
time: 3
agx: -48.0
agy: 11.0
agz: -1001.0
mid: -1
x: -100
y: -100
z: -100
---
header:
  stamp:
    sec: 1724939763
    nanosec: 312397601
  frame_id: ''
raw: mid:-1;x:-100;y:-100;z:-100;mpry:-1,-1,-1;pitch:-1;roll:0;yaw:1;vgx:0;vgy:0;vgz:0;templ:67;temph:70;tof:83;h:60;bat:90;baro:106....
sdk: 2
pitch: -1
roll: 0
yaw: 1
vgx: 0
vgy: 0
vgz: 0
templ: 67
temph: 70
tof: 83
h: 60
bat: 90
baro: 106.9800033569336
time: 3
agx: -14.0
agy: -1.0
agz: -1011.0
mid: -1
x: -100
y: -100
z: -100
---
header:
  stamp:
    sec: 1724939763
    nanosec: 418040261
  frame_id: ''
raw: mid:-1;x:-100;y:-100;z:-100;mpry:-1,-1,-1;pitch:-1;roll:0;yaw:1;vgx:0;vgy:0;vgz:0;templ:67;temph:70;tof:83;h:60;bat:90;baro:107....
sdk: 2
pitch: -1
roll: 0
yaw: 1
vgx: 0
vgy: 0
vgz: 0
templ: 67
temph: 70
tof: 83
h: 60
bat: 90
baro: 107.05000305175781
time: 4
agx: -13.0
agy: 12.0
agz: -977.0
mid: -1
x: -100
y: -100
z: -100
---
header:
  stamp:
    sec: 1724939763
    nanosec: 521216032
  frame_id: ''
raw: mid:-1;x:-100;y:-100;z:-100;mpry:-1,-1,-1;pitch:-1;roll:0;yaw:1;vgx:0;vgy:0;vgz:0;templ:67;temph:70;tof:81;h:60;bat:90;baro:107....
sdk: 2
pitch: -1
roll: 0
yaw: 1
vgx: 0
vgy: 0
vgz: 0
templ: 67
temph: 70
tof: 81
h: 60
bat: 90
baro: 107.0
time: 4
agx: -38.0
agy: 14.0
agz: -1003.0
mid: -1
x: -100
y: -100
z: -100
---
header:
  stamp:
    sec: 1724939763
    nanosec: 623175772
  frame_id: ''
raw: mid:-1;x:-100;y:-100;z:-100;mpry:-1,-1,-1;pitch:-1;roll:0;yaw:1;vgx:0;vgy:0;vgz:0;templ:67;temph:70;tof:81;h:60;bat:90;baro:106....
sdk: 2
pitch: -1
roll: 0
yaw: 1
vgx: 0
vgy: 0
vgz: 0
templ: 67
temph: 70
tof: 81
h: 60
bat: 90
baro: 106.98999786376953
time: 4
agx: -13.0
agy: 14.0
agz: -997.0
mid: -1
x: -100
y: -100
z: -100
---
header:
  stamp:
    sec: 1724939763
    nanosec: 725206879
  frame_id: ''
raw: mid:-1;x:-100;y:-100;z:-100;mpry:-1,-1,-1;pitch:-1;roll:-1;yaw:1;vgx:0;vgy:0;vgz:0;templ:67;temph:70;tof:80;h:60;bat:90;baro:107...
sdk: 2
pitch: -1
roll: -1
yaw: 1
vgx: 0
vgy: 0
vgz: 0
templ: 67
temph: 70
tof: 80
h: 60
bat: 90
baro: 107.0199966430664
time: 4
agx: -13.0
agy: 5.0
agz: -990.0
mid: -1
x: -100
y: -100
z: -100
---
header:
  stamp:
    sec: 1724939763
    nanosec: 826441309
  frame_id: ''
raw: mid:-1;x:-100;y:-100;z:-100;mpry:-1,-1,-1;pitch:0;roll:-1;yaw:1;vgx:0;vgy:0;vgz:0;templ:67;temph:70;tof:81;h:60;bat:90;baro:107....
sdk: 2
pitch: 0
roll: -1
yaw: 1
vgx: 0
vgy: 0
vgz: 0
templ: 67
temph: 70
tof: 81
h: 60
bat: 90
baro: 107.0199966430664
time: 4
agx: 3.0
agy: 0.0
agz: -1001.0
mid: -1
x: -100
y: -100
z: -100
---
header:
  stamp:
    sec: 1724939763
    nanosec: 874283035
  frame_id: ''
raw: mid:-1;x:-100;y:-100;z:-100;mpry:-1,-1,-1;pitch:0;roll:-1;yaw:1;vgx:0;vgy:0;vgz:0;templ:67;temph:70;tof:80;h:50;bat:90;baro:107....
sdk: 2
pitch: 0
roll: -1
yaw: 1
vgx: 0
vgy: 0
vgz: 0
templ: 67
temph: 70
tof: 80
h: 50
bat: 90
baro: 107.0199966430664
time: 4
agx: -24.0
agy: 7.0
agz: -1019.0
mid: -1
x: -100
y: -100
z: -100
---
header:
  stamp:
    sec: 1724939764
    nanosec: 27559318
  frame_id: ''
raw: mid:-1;x:-100;y:-100;z:-100;mpry:-1,-1,-1;pitch:-1;roll:-1;yaw:1;vgx:0;vgy:0;vgz:0;templ:67;temph:70;tof:80;h:50;bat:90;baro:106...
sdk: 2
pitch: -1
roll: -1
yaw: 1
vgx: 0
vgy: 0
vgz: 0
templ: 67
temph: 70
tof: 80
h: 50
bat: 90
baro: 106.9800033569336
time: 4
agx: -17.0
agy: 15.0
agz: -995.0
mid: -1
x: -100
y: -100
z: -100
---
