header:
  stamp:
    sec: 1724950680
    nanosec: 295331940
  frame_id: ''
raw: mid:-1;x:-100;y:-100;z:-100;mpry:-1,-1,-1;pitch:0;roll:0;yaw:-15;vgx:0;vgy:0;vgz:-7;templ:73;temph:75;tof:18;h:10;bat:100;baro:1...
sdk: 2
pitch: 0
roll: 0
yaw: -15
vgx: 0
vgy: 0
vgz: -7
templ: 73
temph: 75
tof: 18
h: 10
bat: 100
baro: 102.69000244140625
time: 0
agx: -61.0
agy: 15.0
agz: -1065.0
mid: -1
x: -100
y: -100
z: -100
---
header:
  stamp:
    sec: 1724950680
    nanosec: 397415355
  frame_id: ''
raw: mid:-1;x:-100;y:-100;z:-100;mpry:-1,-1,-1;pitch:0;roll:0;yaw:-15;vgx:0;vgy:0;vgz:-8;templ:73;temph:75;tof:25;h:20;bat:100;baro:1...
sdk: 2
pitch: 0
roll: 0
yaw: -15
vgx: 0
vgy: 0
vgz: -8
templ: 73
temph: 75
tof: 25
h: 20
bat: 100
baro: 102.83999633789062
time: 0
agx: -54.0
agy: 50.0
agz: -1012.0
mid: -1
x: -100
y: -100
z: -100
---
header:
  stamp:
    sec: 1724950680
    nanosec: 499265887
  frame_id: ''
raw: mid:-1;x:-100;y:-100;z:-100;mpry:-1,-1,-1;pitch:0;roll:0;yaw:-15;vgx:0;vgy:0;vgz:-8;templ:73;temph:75;tof:33;h:30;bat:100;baro:1...
sdk: 2
pitch: 0
roll: 0
yaw: -15
vgx: 0
vgy: 0
vgz: -8
templ: 73
temph: 75
tof: 33
h: 30
bat: 100
baro: 102.88999938964844
time: 0
agx: -71.0
agy: 48.0
agz: -939.0
mid: -1
x: -100
y: -100
z: -100
---
header:
  stamp:
    sec: 1724950680
    nanosec: 601449072
  frame_id: ''
raw: mid:-1;x:-100;y:-100;z:-100;mpry:-1,-1,-1;pitch:0;roll:0;yaw:-15;vgx:0;vgy:0;vgz:-7;templ:73;temph:75;tof:41;h:30;bat:100;baro:1...
sdk: 2
pitch: 0
roll: 0
yaw: -15
vgx: 0
vgy: 0
vgz: -7
templ: 73
temph: 75
tof: 41
h: 30
bat: 100
baro: 102.98999786376953
time: 1
agx: -62.0
agy: 61.0
agz: -911.0
mid: -1
x: -100
y: -100
z: -100
---
header:
  stamp:
    sec: 1724950680
    nanosec: 703395953
  frame_id: ''
raw: mid:-1;x:-100;y:-100;z:-100;mpry:-1,-1,-1;pitch:0;roll:0;yaw:-15;vgx:0;vgy:0;vgz:-7;templ:73;temph:75;tof:48;h:40;bat:100;baro:1...
sdk: 2
pitch: 0
roll: 0
yaw: -15
vgx: 0
vgy: 0
vgz: -7
templ: 73
temph: 75
tof: 48
h: 40
bat: 100
baro: 102.91999816894531
time: 1
agx: -67.0
agy: 51.0
agz: -876.0
mid: -1
x: -100
y: -100
z: -100
---
header:
  stamp:
    sec: 1724950680
    nanosec: 806358416
  frame_id: ''
raw: mid:-1;x:-100;y:-100;z:-100;mpry:-1,-1,-1;pitch:-1;roll:-1;yaw:-14;vgx:-1;vgy:3;vgz:-6;templ:73;temph:75;tof:54;h:50;bat:100;bar...
sdk: 2
pitch: -1
roll: -1
yaw: -14
vgx: -1
vgy: 3
vgz: -6
templ: 73
temph: 75
tof: 54
h: 50
bat: 100
baro: 103.0999984741211
time: 1
agx: -11.0
agy: 26.0
agz: -864.0
mid: -1
x: -100
y: -100
z: -100
---
header:
  stamp:
    sec: 1724950680
    nanosec: 908184609
  frame_id: ''
raw: mid:-1;x:-100;y:-100;z:-100;mpry:-1,-1,-1;pitch:-5;roll:-5;yaw:-14;vgx:-1;vgy:3;vgz:-4;templ:73;temph:75;tof:59;h:50;bat:100;bar...
sdk: 2
pitch: -5
roll: -5
yaw: -14
vgx: -1
vgy: 3
vgz: -4
templ: 73
temph: 75
tof: 59
h: 50
bat: 100
baro: 103.06999969482422
time: 1
agx: 6.0
agy: 21.0
agz: -906.0
mid: -1
x: -100
y: -100
z: -100
---
header:
  stamp:
    sec: 1724950681
    nanosec: 10255571
  frame_id: ''
raw: mid:-1;x:-100;y:-100;z:-100;mpry:-1,-1,-1;pitch:-5;roll:-6;yaw:-14;vgx:-1;vgy:2;vgz:-3;templ:73;temph:75;tof:63;h:60;bat:100;bar...
sdk: 2
pitch: -5
roll: -6
yaw: -14
vgx: -1
vgy: 2
vgz: -3
templ: 73
temph: 75
tof: 63
h: 60
bat: 100
baro: 103.19000244140625
time: 1
agx: -38.0
agy: 48.0
agz: -919.0
mid: -1
x: -100
y: -100
z: -100
---
header:
  stamp:
    sec: 1724950681
    nanosec: 112288266
  frame_id: ''
raw: mid:-1;x:-100;y:-100;z:-100;mpry:-1,-1,-1;pitch:-5;roll:-5;yaw:-14;vgx:0;vgy:1;vgz:-2;templ:73;temph:75;tof:66;h:60;bat:100;baro...
sdk: 2
pitch: -5
roll: -5
yaw: -14
vgx: 0
vgy: 1
vgz: -2
templ: 73
temph: 75
tof: 66
h: 60
bat: 100
baro: 103.1500015258789
time: 1
agx: -33.0
agy: 27.0
agz: -938.0
mid: -1
x: -100
y: -100
z: -100
---
header:
  stamp:
    sec: 1724950681
    nanosec: 215709115
  frame_id: ''
raw: mid:-1;x:-100;y:-100;z:-100;mpry:-1,-1,-1;pitch:-4;roll:-4;yaw:-15;vgx:0;vgy:0;vgz:-2;templ:73;temph:75;tof:68;h:60;bat:100;baro...
sdk: 2
pitch: -4
roll: -4
yaw: -15
vgx: 0
vgy: 0
vgz: -2
templ: 73
temph: 75
tof: 68
h: 60
bat: 100
baro: 103.04000091552734
time: 1
agx: -62.0
agy: 38.0
agz: -960.0
mid: -1
x: -100
y: -100
z: -100
---
header:
  stamp:
    sec: 1724950681
    nanosec: 320346477
  frame_id: ''
raw: mid:-1;x:-100;y:-100;z:-100;mpry:-1,-1,-1;pitch:-4;roll:-3;yaw:-15;vgx:0;vgy:0;vgz:-1;templ:73;temph:75;tof:71;h:60;bat:100;baro...
sdk: 2
pitch: -4
roll: -3
yaw: -15
vgx: 0
vgy: 0
vgz: -1
templ: 73
temph: 75
tof: 71
h: 60
bat: 100
baro: 103.16999816894531
time: 1
agx: -40.0
agy: 21.0
agz: -954.0
mid: -1
x: -100
y: -100
z: -100
---
header:
  stamp:
    sec: 1724950681
    nanosec: 423540531
  frame_id: ''
raw: mid:-1;x:-100;y:-100;z:-100;mpry:-1,-1,-1;pitch:-4;roll:-3;yaw:-15;vgx:0;vgy:0;vgz:-1;templ:73;temph:75;tof:72;h:60;bat:100;baro...
sdk: 2
pitch: -4
roll: -3
yaw: -15
vgx: 0
vgy: 0
vgz: -1
templ: 73
temph: 75
tof: 72
h: 60
bat: 100
baro: 103.1500015258789
time: 1
agx: -64.0
agy: 44.0
agz: -969.0
mid: -1
x: -100
y: -100
z: -100
---
header:
  stamp:
    sec: 1724950681
    nanosec: 526110687
  frame_id: ''
raw: mid:-1;x:-100;y:-100;z:-100;mpry:-1,-1,-1;pitch:-5;roll:-3;yaw:-15;vgx:0;vgy:0;vgz:-1;templ:73;temph:75;tof:73;h:70;bat:100;baro...
sdk: 2
pitch: -5
roll: -3
yaw: -15
vgx: 0
vgy: 0
vgz: -1
templ: 73
temph: 75
tof: 73
h: 70
bat: 100
baro: 103.12999725341797
time: 1
agx: -59.0
agy: 43.0
agz: -979.0
mid: -1
x: -100
y: -100
z: -100
---
header:
  stamp:
    sec: 1724950681
    nanosec: 628053863
  frame_id: ''
raw: mid:-1;x:-100;y:-100;z:-100;mpry:-1,-1,-1;pitch:-4;roll:-3;yaw:-15;vgx:0;vgy:0;vgz:0;templ:73;temph:75;tof:75;h:70;bat:100;baro:...
sdk: 2
pitch: -4
roll: -3
yaw: -15
vgx: 0
vgy: 0
vgz: 0
templ: 73
temph: 75
tof: 75
h: 70
bat: 100
baro: 103.11000061035156
time: 2
agx: -60.0
agy: 50.0
agz: -1026.0
mid: -1
x: -100
y: -100
z: -100
---
header:
  stamp:
    sec: 1724950681
    nanosec: 730647931
  frame_id: ''
raw: mid:-1;x:-100;y:-100;z:-100;mpry:-1,-1,-1;pitch:-5;roll:-3;yaw:-15;vgx:0;vgy:0;vgz:-1;templ:73;temph:75;tof:76;h:70;bat:100;baro...
sdk: 2
pitch: -5
roll: -3
yaw: -15
vgx: 0
vgy: 0
vgz: -1
templ: 73
temph: 75
tof: 76
h: 70
bat: 100
baro: 103.13999938964844
time: 2
agx: -63.0
agy: 23.0
agz: -1016.0
mid: -1
x: -100
y: -100
z: -100
---
header:
  stamp:
    sec: 1724950681
    nanosec: 833407987
  frame_id: ''
raw: mid:-1;x:-100;y:-100;z:-100;mpry:-1,-1,-1;pitch:-5;roll:-3;yaw:-15;vgx:0;vgy:0;vgz:-1;templ:73;temph:75;tof:77;h:70;bat:100;baro...
sdk: 2
pitch: -5
roll: -3
yaw: -15
vgx: 0
vgy: 0
vgz: -1
templ: 73
temph: 75
tof: 77
h: 70
bat: 100
baro: 103.23999786376953
time: 2
agx: -26.0
agy: 26.0
agz: -977.0
mid: -1
x: -100
y: -100
z: -100
---
header:
  stamp:
    sec: 1724950681
    nanosec: 935716488
  frame_id: ''
raw: mid:-1;x:-100;y:-100;z:-100;mpry:-1,-1,-1;pitch:-5;roll:-2;yaw:-14;vgx:0;vgy:0;vgz:-1;templ:73;temph:75;tof:78;h:70;bat:100;baro...
sdk: 2
pitch: -5
roll: -2
yaw: -14
vgx: 0
vgy: 0
vgz: -1
templ: 73
temph: 75
tof: 78
h: 70
bat: 100
baro: 103.18000030517578
time: 2
agx: -61.0
agy: 59.0
agz: -975.0
mid: -1
x: -100
y: -100
z: -100
---
header:
  stamp:
    sec: 1724950682
    nanosec: 38153084
  frame_id: ''
raw: mid:-1;x:-100;y:-100;z:-100;mpry:-1,-1,-1;pitch:-4;roll:-2;yaw:-14;vgx:0;vgy:0;vgz:-1;templ:73;temph:75;tof:79;h:70;bat:100;baro...
sdk: 2
pitch: -4
roll: -2
yaw: -14
vgx: 0
vgy: 0
vgz: -1
templ: 73
temph: 75
tof: 79
h: 70
bat: 100
baro: 103.12999725341797
time: 2
agx: -39.0
agy: 35.0
agz: -983.0
mid: -1
x: -100
y: -100
z: -100
---
header:
  stamp:
    sec: 1724950682
    nanosec: 140383645
  frame_id: ''
raw: mid:-1;x:-100;y:-100;z:-100;mpry:-1,-1,-1;pitch:-4;roll:-2;yaw:-14;vgx:0;vgy:0;vgz:-1;templ:73;temph:75;tof:81;h:70;bat:100;baro...
sdk: 2
pitch: -4
roll: -2
yaw: -14
vgx: 0
vgy: 0
vgz: -1
templ: 73
temph: 75
tof: 81
h: 70
bat: 100
baro: 103.06999969482422
time: 2
agx: -50.0
agy: 32.0
agz: -996.0
mid: -1
x: -100
y: -100
z: -100
---
header:
  stamp:
    sec: 1724950682
    nanosec: 239181583
  frame_id: ''
raw: mid:-1;x:-100;y:-100;z:-100;mpry:-1,-1,-1;pitch:-3;roll:-2;yaw:-14;vgx:0;vgy:0;vgz:0;templ:73;temph:75;tof:81;h:70;bat:100;baro:...
sdk: 2
pitch: -3
roll: -2
yaw: -14
vgx: 0
vgy: 0
vgz: 0
templ: 73
temph: 75
tof: 81
h: 70
bat: 100
baro: 103.25
time: 2
agx: -19.0
agy: 51.0
agz: -963.0
mid: -1
x: -100
y: -100
z: -100
---
header:
  stamp:
    sec: 1724950682
    nanosec: 339126873
  frame_id: ''
raw: mid:-1;x:-100;y:-100;z:-100;mpry:-1,-1,-1;pitch:-3;roll:-2;yaw:-14;vgx:0;vgy:0;vgz:0;templ:73;temph:75;tof:81;h:80;bat:100;baro:...
sdk: 2
pitch: -3
roll: -2
yaw: -14
vgx: 0
vgy: 0
vgz: 0
templ: 73
temph: 75
tof: 81
h: 80
bat: 100
baro: 103.33000183105469
time: 2
agx: -26.0
agy: 62.0
agz: -956.0
mid: -1
x: -100
y: -100
z: -100
---
header:
  stamp:
    sec: 1724950682
    nanosec: 441399739
  frame_id: ''
raw: mid:-1;x:-100;y:-100;z:-100;mpry:-1,-1,-1;pitch:-2;roll:-2;yaw:-14;vgx:1;vgy:0;vgz:0;templ:73;temph:75;tof:80;h:80;bat:100;baro:...
sdk: 2
pitch: -2
roll: -2
yaw: -14
vgx: 1
vgy: 0
vgz: 0
templ: 73
temph: 75
tof: 80
h: 80
bat: 100
baro: 103.41000366210938
time: 2
agx: -34.0
agy: 47.0
agz: -964.0
mid: -1
x: -100
y: -100
z: -100
---
header:
  stamp:
    sec: 1724950682
    nanosec: 546354688
  frame_id: ''
raw: mid:-1;x:-100;y:-100;z:-100;mpry:-1,-1,-1;pitch:-1;roll:-2;yaw:-14;vgx:1;vgy:0;vgz:0;templ:73;temph:75;tof:82;h:80;bat:100;baro:...
sdk: 2
pitch: -1
roll: -2
yaw: -14
vgx: 1
vgy: 0
vgz: 0
templ: 73
temph: 75
tof: 82
h: 80
bat: 100
baro: 103.33999633789062
time: 2
agx: -11.0
agy: 50.0
agz: -978.0
mid: -1
x: -100
y: -100
z: -100
---
header:
  stamp:
    sec: 1724950682
    nanosec: 648391140
  frame_id: ''
raw: mid:-1;x:-100;y:-100;z:-100;mpry:-1,-1,-1;pitch:-1;roll:-2;yaw:-14;vgx:1;vgy:0;vgz:0;templ:73;temph:75;tof:81;h:80;bat:100;baro:...
sdk: 2
pitch: -1
roll: -2
yaw: -14
vgx: 1
vgy: 0
vgz: 0
templ: 73
temph: 75
tof: 81
h: 80
bat: 100
baro: 103.2699966430664
time: 3
agx: -27.0
agy: 62.0
agz: -1012.0
mid: -1
x: -100
y: -100
z: -100
---
header:
  stamp:
    sec: 1724950682
    nanosec: 749966241
  frame_id: ''
raw: mid:-1;x:-100;y:-100;z:-100;mpry:-1,-1,-1;pitch:0;roll:-2;yaw:-14;vgx:1;vgy:0;vgz:0;templ:73;temph:75;tof:80;h:80;bat:100;baro:1...
sdk: 2
pitch: 0
roll: -2
yaw: -14
vgx: 1
vgy: 0
vgz: 0
templ: 73
temph: 75
tof: 80
h: 80
bat: 100
baro: 103.37000274658203
time: 3
agx: 8.0
agy: 43.0
agz: -968.0
mid: -1
x: -100
y: -100
z: -100
---
header:
  stamp:
    sec: 1724950682
    nanosec: 857910423
  frame_id: ''
raw: mid:-1;x:-100;y:-100;z:-100;mpry:-1,-1,-1;pitch:0;roll:-2;yaw:-14;vgx:1;vgy:0;vgz:0;templ:73;temph:75;tof:81;h:80;bat:100;baro:1...
sdk: 2
pitch: 0
roll: -2
yaw: -14
vgx: 1
vgy: 0
vgz: 0
templ: 73
temph: 75
tof: 81
h: 80
bat: 100
baro: 103.37999725341797
time: 3
agx: -21.0
agy: 43.0
agz: -991.0
mid: -1
x: -100
y: -100
z: -100
---
header:
  stamp:
    sec: 1724950682
    nanosec: 904274791
  frame_id: ''
raw: mid:-1;x:-100;y:-100;z:-100;mpry:-1,-1,-1;pitch:0;roll:-3;yaw:-15;vgx:1;vgy:0;vgz:0;templ:73;temph:75;tof:80;h:80;bat:100;baro:1...
sdk: 2
pitch: 0
roll: -3
yaw: -15
vgx: 1
vgy: 0
vgz: 0
templ: 73
temph: 75
tof: 80
h: 80
bat: 100
baro: 103.25
time: 3
agx: -37.0
agy: 50.0
agz: -982.0
mid: -1
x: -100
y: -100
z: -100
---
header:
  stamp:
    sec: 1724950683
    nanosec: 62680157
  frame_id: ''
raw: mid:-1;x:-100;y:-100;z:-100;mpry:-1,-1,-1;pitch:0;roll:-3;yaw:-15;vgx:0;vgy:0;vgz:0;templ:73;temph:75;tof:81;h:80;bat:100;baro:1...
sdk: 2
pitch: 0
roll: -3
yaw: -15
vgx: 0
vgy: 0
vgz: 0
templ: 73
temph: 75
tof: 81
h: 80
bat: 100
baro: 103.27999877929688
time: 3
agx: -4.0
agy: 49.0
agz: -1009.0
mid: -1
x: -100
y: -100
z: -100
---
header:
  stamp:
    sec: 1724950683
    nanosec: 163883454
  frame_id: ''
raw: mid:-1;x:-100;y:-100;z:-100;mpry:-1,-1,-1;pitch:0;roll:-2;yaw:-15;vgx:0;vgy:0;vgz:0;templ:73;temph:75;tof:81;h:80;bat:100;baro:1...
sdk: 2
pitch: 0
roll: -2
yaw: -15
vgx: 0
vgy: 0
vgz: 0
templ: 73
temph: 75
tof: 81
h: 80
bat: 100
baro: 103.26000213623047
time: 3
agx: -26.0
agy: 74.0
agz: -1018.0
mid: -1
x: -100
y: -100
z: -100
---
header:
  stamp:
    sec: 1724950683
    nanosec: 266945916
  frame_id: ''
raw: mid:-1;x:-100;y:-100;z:-100;mpry:-1,-1,-1;pitch:0;roll:-2;yaw:-15;vgx:0;vgy:0;vgz:0;templ:73;temph:75;tof:81;h:80;bat:100;baro:1...
sdk: 2
pitch: 0
roll: -2
yaw: -15
vgx: 0
vgy: 0
vgz: 0
templ: 73
temph: 75
tof: 81
h: 80
bat: 100
baro: 103.3499984741211
time: 3
agx: -7.0
agy: 52.0
agz: -1011.0
mid: -1
x: -100
y: -100
z: -100
---
header:
  stamp:
    sec: 1724950683
    nanosec: 368938507
  frame_id: ''
raw: mid:-1;x:-100;y:-100;z:-100;mpry:-1,-1,-1;pitch:0;roll:-2;yaw:-15;vgx:0;vgy:0;vgz:0;templ:73;temph:75;tof:81;h:80;bat:100;baro:1...
sdk: 2
pitch: 0
roll: -2
yaw: -15
vgx: 0
vgy: 0
vgz: 0
templ: 73
temph: 75
tof: 81
h: 80
bat: 100
baro: 103.26000213623047
time: 3
agx: -48.0
agy: 64.0
agz: -998.0
mid: -1
x: -100
y: -100
z: -100
---
header:
  stamp:
    sec: 1724950683
    nanosec: 415600733
  frame_id: ''
raw: mid:-1;x:-100;y:-100;z:-100;mpry:-1,-1,-1;pitch:0;roll:-2;yaw:-15;vgx:0;vgy:0;vgz:0;templ:73;temph:75;tof:81;h:80;bat:100;baro:1...
sdk: 2
pitch: 0
roll: -2
yaw: -15
vgx: 0
vgy: 0
vgz: 0
templ: 73
temph: 75
tof: 81
h: 80
bat: 100
baro: 103.12000274658203
time: 3
agx: -41.0
agy: 58.0
agz: -978.0
mid: -1
x: -100
y: -100
z: -100
---
header:
  stamp:
    sec: 1724950683
    nanosec: 520437483
  frame_id: ''
raw: mid:-1;x:-100;y:-100;z:-100;mpry:-1,-1,-1;pitch:0;roll:-3;yaw:-15;vgx:0;vgy:0;vgz:0;templ:73;temph:75;tof:82;h:80;bat:100;baro:1...
sdk: 2
pitch: 0
roll: -3
yaw: -15
vgx: 0
vgy: 0
vgz: 0
templ: 73
temph: 75
tof: 82
h: 80
bat: 100
baro: 103.27999877929688
time: 3
agx: -45.0
agy: 59.0
agz: -1025.0
mid: -1
x: -100
y: -100
z: -100
---
header:
  stamp:
    sec: 1724950683
    nanosec: 622472668
  frame_id: ''
raw: mid:-1;x:-100;y:-100;z:-100;mpry:-1,-1,-1;pitch:-1;roll:-3;yaw:-15;vgx:0;vgy:0;vgz:0;templ:73;temph:75;tof:82;h:80;bat:100;baro:...
sdk: 2
pitch: -1
roll: -3
yaw: -15
vgx: 0
vgy: 0
vgz: 0
templ: 73
temph: 75
tof: 82
h: 80
bat: 100
baro: 103.2699966430664
time: 4
agx: -44.0
agy: 57.0
agz: -1013.0
mid: -1
x: -100
y: -100
z: -100
---
header:
  stamp:
    sec: 1724950683
    nanosec: 721397142
  frame_id: ''
raw: mid:-1;x:-100;y:-100;z:-100;mpry:-1,-1,-1;pitch:-2;roll:-3;yaw:-14;vgx:0;vgy:0;vgz:0;templ:73;temph:75;tof:83;h:80;bat:100;baro:...
sdk: 2
pitch: -2
roll: -3
yaw: -14
vgx: 0
vgy: 0
vgz: 0
templ: 73
temph: 75
tof: 83
h: 80
bat: 100
baro: 103.19000244140625
time: 4
agx: -27.0
agy: 62.0
agz: -984.0
mid: -1
x: -100
y: -100
z: -100
---
header:
  stamp:
    sec: 1724950683
    nanosec: 823160792
  frame_id: ''
raw: mid:-1;x:-100;y:-100;z:-100;mpry:-1,-1,-1;pitch:-2;roll:-3;yaw:-14;vgx:0;vgy:0;vgz:0;templ:73;temph:75;tof:84;h:80;bat:100;baro:...
sdk: 2
pitch: -2
roll: -3
yaw: -14
vgx: 0
vgy: 0
vgz: 0
templ: 73
temph: 75
tof: 84
h: 80
bat: 100
baro: 103.31999969482422
time: 4
agx: -24.0
agy: 59.0
agz: -992.0
mid: -1
x: -100
y: -100
z: -100
---
header:
  stamp:
    sec: 1724950683
    nanosec: 925067409
  frame_id: ''
raw: mid:-1;x:-100;y:-100;z:-100;mpry:-1,-1,-1;pitch:-2;roll:-3;yaw:-15;vgx:0;vgy:0;vgz:0;templ:73;temph:75;tof:84;h:80;bat:100;baro:...
sdk: 2
pitch: -2
roll: -3
yaw: -15
vgx: 0
vgy: 0
vgz: 0
templ: 73
temph: 75
tof: 84
h: 80
bat: 100
baro: 103.29000091552734
time: 4
agx: -62.0
agy: 73.0
agz: -993.0
mid: -1
x: -100
y: -100
z: -100
---
header:
  stamp:
    sec: 1724950684
    nanosec: 31286401
  frame_id: ''
raw: mid:-1;x:-100;y:-100;z:-100;mpry:-1,-1,-1;pitch:-1;roll:-3;yaw:-15;vgx:0;vgy:0;vgz:0;templ:73;temph:75;tof:85;h:80;bat:100;baro:...
sdk: 2
pitch: -1
roll: -3
yaw: -15
vgx: 0
vgy: 0
vgz: 0
templ: 73
temph: 75
tof: 85
h: 80
bat: 100
baro: 103.2699966430664
time: 4
agx: -20.0
agy: 50.0
agz: -1005.0
mid: -1
x: -100
y: -100
z: -100
---
