header:
  stamp:
    sec: 1728657871
    nanosec: 89415199
  frame_id: ''
raw: mid:-1;x:-100;y:-100;z:-100;mpry:-1,-1,-1;pitch:-4;roll:0;yaw:-87;vgx:0;vgy:0;vgz:0;templ:64;temph:67;tof:298;h:280;bat:67;baro:...
sdk: 2
pitch: -4
roll: 0
yaw: -87
vgx: 0
vgy: 0
vgz: 0
templ: 64
temph: 67
tof: 298
h: 280
bat: 67
baro: 122.47000122070312
time: 181
agx: -77.0
agy: 0.0
agz: -994.0
mid: -1
x: -100
y: -100
z: -100
---
header:
  stamp:
    sec: 1728657871
    nanosec: 191110719
  frame_id: ''
raw: mid:-1;x:-100;y:-100;z:-100;mpry:-1,-1,-1;pitch:-4;roll:0;yaw:-87;vgx:0;vgy:0;vgz:0;templ:64;temph:67;tof:297;h:280;bat:67;baro:...
sdk: 2
pitch: -4
roll: 0
yaw: -87
vgx: 0
vgy: 0
vgz: 0
templ: 64
temph: 67
tof: 297
h: 280
bat: 67
baro: 122.38999938964844
time: 181
agx: -52.0
agy: -17.0
agz: -1005.0
mid: -1
x: -100
y: -100
z: -100
---
header:
  stamp:
    sec: 1728657871
    nanosec: 292428561
  frame_id: ''
raw: mid:-1;x:-100;y:-100;z:-100;mpry:-1,-1,-1;pitch:-4;roll:0;yaw:-87;vgx:0;vgy:0;vgz:0;templ:64;temph:67;tof:300;h:280;bat:67;baro:...
sdk: 2
pitch: -4
roll: 0
yaw: -87
vgx: 0
vgy: 0
vgz: 0
templ: 64
temph: 67
tof: 300
h: 280
bat: 67
baro: 122.41999816894531
time: 181
agx: -90.0
agy: 26.0
agz: -985.0
mid: -1
x: -100
y: -100
z: -100
---
header:
  stamp:
    sec: 1728657871
    nanosec: 394501119
  frame_id: ''
raw: mid:-1;x:-100;y:-100;z:-100;mpry:-1,-1,-1;pitch:-4;roll:0;yaw:-87;vgx:0;vgy:0;vgz:0;templ:64;temph:67;tof:298;h:280;bat:67;baro:...
sdk: 2
pitch: -4
roll: 0
yaw: -87
vgx: 0
vgy: 0
vgz: 0
templ: 64
temph: 67
tof: 298
h: 280
bat: 67
baro: 122.48999786376953
time: 182
agx: -79.0
agy: 5.0
agz: -981.0
mid: -1
x: -100
y: -100
z: -100
---
header:
  stamp:
    sec: 1728657871
    nanosec: 496445228
  frame_id: ''
raw: mid:-1;x:-100;y:-100;z:-100;mpry:-1,-1,-1;pitch:-4;roll:0;yaw:-87;vgx:0;vgy:0;vgz:0;templ:64;temph:67;tof:294;h:280;bat:67;baro:...
sdk: 2
pitch: -4
roll: 0
yaw: -87
vgx: 0
vgy: 0
vgz: 0
templ: 64
temph: 67
tof: 294
h: 280
bat: 67
baro: 122.48999786376953
time: 182
agx: -95.0
agy: -8.0
agz: -955.0
mid: -1
x: -100
y: -100
z: -100
---
header:
  stamp:
    sec: 1728657871
    nanosec: 598636663
  frame_id: ''
raw: mid:-1;x:-100;y:-100;z:-100;mpry:-1,-1,-1;pitch:-4;roll:0;yaw:-87;vgx:0;vgy:0;vgz:0;templ:64;temph:67;tof:308;h:280;bat:67;baro:...
sdk: 2
pitch: -4
roll: 0
yaw: -87
vgx: 0
vgy: 0
vgz: 0
templ: 64
temph: 67
tof: 308
h: 280
bat: 67
baro: 122.47000122070312
time: 182
agx: -73.0
agy: -12.0
agz: -972.0
mid: -1
x: -100
y: -100
z: -100
---
header:
  stamp:
    sec: 1728657871
    nanosec: 700390449
  frame_id: ''
raw: mid:-1;x:-100;y:-100;z:-100;mpry:-1,-1,-1;pitch:-5;roll:0;yaw:-87;vgx:0;vgy:0;vgz:0;templ:64;temph:67;tof:301;h:280;bat:67;baro:...
sdk: 2
pitch: -5
roll: 0
yaw: -87
vgx: 0
vgy: 0
vgz: 0
templ: 64
temph: 67
tof: 301
h: 280
bat: 67
baro: 122.5199966430664
time: 182
agx: -74.0
agy: 0.0
agz: -984.0
mid: -1
x: -100
y: -100
z: -100
---
header:
  stamp:
    sec: 1728657871
    nanosec: 751329566
  frame_id: ''
raw: mid:-1;x:-100;y:-100;z:-100;mpry:-1,-1,-1;pitch:-4;roll:0;yaw:-87;vgx:0;vgy:0;vgz:0;templ:64;temph:67;tof:302;h:280;bat:67;baro:...
sdk: 2
pitch: -4
roll: 0
yaw: -87
vgx: 0
vgy: 0
vgz: 0
templ: 64
temph: 67
tof: 302
h: 280
bat: 67
baro: 122.51000213623047
time: 182
agx: -86.0
agy: -6.0
agz: -978.0
mid: -1
x: -100
y: -100
z: -100
---
header:
  stamp:
    sec: 1728657871
    nanosec: 854986580
  frame_id: ''
raw: mid:-1;x:-100;y:-100;z:-100;mpry:-1,-1,-1;pitch:-4;roll:1;yaw:-87;vgx:0;vgy:0;vgz:0;templ:64;temph:67;tof:319;h:290;bat:67;baro:...
sdk: 2
pitch: -4
roll: 1
yaw: -87
vgx: 0
vgy: 0
vgz: 0
templ: 64
temph: 67
tof: 319
h: 290
bat: 67
baro: 122.55999755859375
time: 182
agx: -65.0
agy: 11.0
agz: -978.0
mid: -1
x: -100
y: -100
z: -100
---
header:
  stamp:
    sec: 1728657871
    nanosec: 957407253
  frame_id: ''
raw: mid:-1;x:-100;y:-100;z:-100;mpry:-1,-1,-1;pitch:-4;roll:0;yaw:-87;vgx:0;vgy:0;vgz:0;templ:64;temph:67;tof:290;h:290;bat:67;baro:...
sdk: 2
pitch: -4
roll: 0
yaw: -87
vgx: 0
vgy: 0
vgz: 0
templ: 64
temph: 67
tof: 290
h: 290
bat: 67
baro: 122.48999786376953
time: 182
agx: -87.0
agy: -10.0
agz: -971.0
mid: -1
x: -100
y: -100
z: -100
---
header:
  stamp:
    sec: 1728657872
    nanosec: 58084335
  frame_id: ''
raw: mid:-1;x:-100;y:-100;z:-100;mpry:-1,-1,-1;pitch:-5;roll:0;yaw:-87;vgx:0;vgy:0;vgz:0;templ:65;temph:67;tof:312;h:290;bat:67;baro:...
sdk: 2
pitch: -5
roll: 0
yaw: -87
vgx: 0
vgy: 0
vgz: 0
templ: 65
temph: 67
tof: 312
h: 290
bat: 67
baro: 122.41000366210938
time: 182
agx: -58.0
agy: -5.0
agz: -1001.0
mid: -1
x: -100
y: -100
z: -100
---
header:
  stamp:
    sec: 1728657872
    nanosec: 160500838
  frame_id: ''
raw: mid:-1;x:-100;y:-100;z:-100;mpry:-1,-1,-1;pitch:-4;roll:0;yaw:-87;vgx:0;vgy:0;vgz:0;templ:65;temph:67;tof:302;h:290;bat:67;baro:...
sdk: 2
pitch: -4
roll: 0
yaw: -87
vgx: 0
vgy: 0
vgz: 0
templ: 65
temph: 67
tof: 302
h: 290
bat: 67
baro: 122.51000213623047
time: 182
agx: -74.0
agy: -5.0
agz: -969.0
mid: -1
x: -100
y: -100
z: -100
---
header:
  stamp:
    sec: 1728657872
    nanosec: 262372554
  frame_id: ''
raw: mid:-1;x:-100;y:-100;z:-100;mpry:-1,-1,-1;pitch:-4;roll:0;yaw:-87;vgx:0;vgy:0;vgz:0;templ:65;temph:67;tof:296;h:290;bat:67;baro:...
sdk: 2
pitch: -4
roll: 0
yaw: -87
vgx: 0
vgy: 0
vgz: 0
templ: 65
temph: 67
tof: 296
h: 290
bat: 67
baro: 122.5
time: 182
agx: -22.0
agy: -40.0
agz: -979.0
mid: -1
x: -100
y: -100
z: -100
---
header:
  stamp:
    sec: 1728657872
    nanosec: 364442627
  frame_id: ''
raw: mid:-1;x:-100;y:-100;z:-100;mpry:-1,-1,-1;pitch:-4;roll:0;yaw:-87;vgx:0;vgy:0;vgz:0;templ:65;temph:67;tof:301;h:290;bat:67;baro:...
sdk: 2
pitch: -4
roll: 0
yaw: -87
vgx: 0
vgy: 0
vgz: 0
templ: 65
temph: 67
tof: 301
h: 290
bat: 67
baro: 122.4800033569336
time: 183
agx: -60.0
agy: -5.0
agz: -964.0
mid: -1
x: -100
y: -100
z: -100
---
header:
  stamp:
    sec: 1728657872
    nanosec: 469631515
  frame_id: ''
raw: mid:-1;x:-100;y:-100;z:-100;mpry:-1,-1,-1;pitch:-3;roll:0;yaw:-87;vgx:0;vgy:0;vgz:0;templ:65;temph:67;tof:302;h:290;bat:67;baro:...
sdk: 2
pitch: -3
roll: 0
yaw: -87
vgx: 0
vgy: 0
vgz: 0
templ: 65
temph: 67
tof: 302
h: 290
bat: 67
baro: 122.51000213623047
time: 183
agx: -68.0
agy: -17.0
agz: -962.0
mid: -1
x: -100
y: -100
z: -100
---
header:
  stamp:
    sec: 1728657872
    nanosec: 569349367
  frame_id: ''
raw: mid:-1;x:-100;y:-100;z:-100;mpry:-1,-1,-1;pitch:-3;roll:0;yaw:-87;vgx:0;vgy:0;vgz:0;templ:65;temph:67;tof:298;h:290;bat:67;baro:...
sdk: 2
pitch: -3
roll: 0
yaw: -87
vgx: 0
vgy: 0
vgz: 0
templ: 65
temph: 67
tof: 298
h: 290
bat: 67
baro: 122.41000366210938
time: 183
agx: -97.0
agy: -4.0
agz: -976.0
mid: -1
x: -100
y: -100
z: -100
---
header:
  stamp:
    sec: 1728657872
    nanosec: 671183994
  frame_id: ''
raw: mid:-1;x:-100;y:-100;z:-100;mpry:-1,-1,-1;pitch:-4;roll:0;yaw:-87;vgx:0;vgy:0;vgz:1;templ:65;temph:67;tof:293;h:290;bat:67;baro:...
sdk: 2
pitch: -4
roll: 0
yaw: -87
vgx: 0
vgy: 0
vgz: 1
templ: 65
temph: 67
tof: 293
h: 290
bat: 67
baro: 122.38999938964844
time: 183
agx: -78.0
agy: 5.0
agz: -977.0
mid: -1
x: -100
y: -100
z: -100
---
header:
  stamp:
    sec: 1728657872
    nanosec: 773313624
  frame_id: ''
raw: mid:-1;x:-100;y:-100;z:-100;mpry:-1,-1,-1;pitch:-4;roll:0;yaw:-87;vgx:0;vgy:0;vgz:1;templ:65;temph:67;tof:301;h:290;bat:67;baro:...
sdk: 2
pitch: -4
roll: 0
yaw: -87
vgx: 0
vgy: 0
vgz: 1
templ: 65
temph: 67
tof: 301
h: 290
bat: 67
baro: 122.29000091552734
time: 183
agx: -94.0
agy: 29.0
agz: -991.0
mid: -1
x: -100
y: -100
z: -100
---
header:
  stamp:
    sec: 1728657872
    nanosec: 875266404
  frame_id: ''
raw: mid:-1;x:-100;y:-100;z:-100;mpry:-1,-1,-1;pitch:-4;roll:0;yaw:-87;vgx:0;vgy:0;vgz:1;templ:65;temph:67;tof:289;h:290;bat:67;baro:...
sdk: 2
pitch: -4
roll: 0
yaw: -87
vgx: 0
vgy: 0
vgz: 1
templ: 65
temph: 67
tof: 289
h: 290
bat: 67
baro: 122.41999816894531
time: 183
agx: -75.0
agy: -6.0
agz: -1003.0
mid: -1
x: -100
y: -100
z: -100
---
header:
  stamp:
    sec: 1728657872
    nanosec: 977284610
  frame_id: ''
raw: mid:-1;x:-100;y:-100;z:-100;mpry:-1,-1,-1;pitch:-4;roll:0;yaw:-87;vgx:0;vgy:0;vgz:1;templ:65;temph:67;tof:291;h:280;bat:67;baro:...
sdk: 2
pitch: -4
roll: 0
yaw: -87
vgx: 0
vgy: 0
vgz: 1
templ: 65
temph: 67
tof: 291
h: 280
bat: 67
baro: 122.37999725341797
time: 183
agx: -75.0
agy: 8.0
agz: -1008.0
mid: -1
x: -100
y: -100
z: -100
---
header:
  stamp:
    sec: 1728657873
    nanosec: 79776030
  frame_id: ''
raw: mid:-1;x:-100;y:-100;z:-100;mpry:-1,-1,-1;pitch:-4;roll:0;yaw:-87;vgx:0;vgy:0;vgz:1;templ:65;temph:66;tof:282;h:280;bat:67;baro:...
sdk: 2
pitch: -4
roll: 0
yaw: -87
vgx: 0
vgy: 0
vgz: 1
templ: 65
temph: 66
tof: 282
h: 280
bat: 67
baro: 122.30999755859375
time: 183
agx: -73.0
agy: -29.0
agz: -1018.0
mid: -1
x: -100
y: -100
z: -100
---
header:
  stamp:
    sec: 1728657873
    nanosec: 181234827
  frame_id: ''
raw: mid:-1;x:-100;y:-100;z:-100;mpry:-1,-1,-1;pitch:-4;roll:0;yaw:-87;vgx:0;vgy:0;vgz:1;templ:65;temph:66;tof:291;h:280;bat:67;baro:...
sdk: 2
pitch: -4
roll: 0
yaw: -87
vgx: 0
vgy: 0
vgz: 1
templ: 65
temph: 66
tof: 291
h: 280
bat: 67
baro: 122.33999633789062
time: 183
agx: -79.0
agy: 8.0
agz: -1029.0
mid: -1
x: -100
y: -100
z: -100
---
header:
  stamp:
    sec: 1728657873
    nanosec: 283228601
  frame_id: ''
raw: mid:-1;x:-100;y:-100;z:-100;mpry:-1,-1,-1;pitch:-4;roll:0;yaw:-87;vgx:0;vgy:0;vgz:0;templ:65;temph:66;tof:286;h:280;bat:67;baro:...
sdk: 2
pitch: -4
roll: 0
yaw: -87
vgx: 0
vgy: 0
vgz: 0
templ: 65
temph: 66
tof: 286
h: 280
bat: 67
baro: 122.33000183105469
time: 183
agx: -80.0
agy: 18.0
agz: -1032.0
mid: -1
x: -100
y: -100
z: -100
---
header:
  stamp:
    sec: 1728657873
    nanosec: 385226040
  frame_id: ''
raw: mid:-1;x:-100;y:-100;z:-100;mpry:-1,-1,-1;pitch:-4;roll:0;yaw:-87;vgx:0;vgy:0;vgz:0;templ:65;temph:66;tof:273;h:280;bat:67;baro:...
sdk: 2
pitch: -4
roll: 0
yaw: -87
vgx: 0
vgy: 0
vgz: 0
templ: 65
temph: 66
tof: 273
h: 280
bat: 67
baro: 122.33000183105469
time: 184
agx: -94.0
agy: 24.0
agz: -1012.0
mid: -1
x: -100
y: -100
z: -100
---
header:
  stamp:
    sec: 1728657873
    nanosec: 490834663
  frame_id: ''
raw: mid:-1;x:-100;y:-100;z:-100;mpry:-1,-1,-1;pitch:-4;roll:0;yaw:-87;vgx:0;vgy:0;vgz:0;templ:65;temph:66;tof:285;h:280;bat:67;baro:...
sdk: 2
pitch: -4
roll: 0
yaw: -87
vgx: 0
vgy: 0
vgz: 0
templ: 65
temph: 66
tof: 285
h: 280
bat: 67
baro: 122.25
time: 184
agx: -93.0
agy: 1.0
agz: -994.0
mid: -1
x: -100
y: -100
z: -100
---
header:
  stamp:
    sec: 1728657873
    nanosec: 590985251
  frame_id: ''
raw: mid:-1;x:-100;y:-100;z:-100;mpry:-1,-1,-1;pitch:-4;roll:0;yaw:-87;vgx:0;vgy:0;vgz:0;templ:65;temph:66;tof:289;h:280;bat:66;baro:...
sdk: 2
pitch: -4
roll: 0
yaw: -87
vgx: 0
vgy: 0
vgz: 0
templ: 65
temph: 66
tof: 289
h: 280
bat: 66
baro: 122.38999938964844
time: 184
agx: -76.0
agy: -13.0
agz: -1014.0
mid: -1
x: -100
y: -100
z: -100
---
header:
  stamp:
    sec: 1728657873
    nanosec: 693922135
  frame_id: ''
raw: mid:-1;x:-100;y:-100;z:-100;mpry:-1,-1,-1;pitch:-4;roll:0;yaw:-87;vgx:0;vgy:0;vgz:0;templ:65;temph:66;tof:287;h:280;bat:66;baro:...
sdk: 2
pitch: -4
roll: 0
yaw: -87
vgx: 0
vgy: 0
vgz: 0
templ: 65
temph: 66
tof: 287
h: 280
bat: 66
baro: 122.31999969482422
time: 184
agx: -91.0
agy: -10.0
agz: -969.0
mid: -1
x: -100
y: -100
z: -100
---
header:
  stamp:
    sec: 1728657873
    nanosec: 796757327
  frame_id: ''
raw: mid:-1;x:-100;y:-100;z:-100;mpry:-1,-1,-1;pitch:-4;roll:0;yaw:-87;vgx:0;vgy:0;vgz:0;templ:65;temph:66;tof:285;h:280;bat:66;baro:...
sdk: 2
pitch: -4
roll: 0
yaw: -87
vgx: 0
vgy: 0
vgz: 0
templ: 65
temph: 66
tof: 285
h: 280
bat: 66
baro: 122.29000091552734
time: 184
agx: -96.0
agy: 17.0
agz: -1020.0
mid: -1
x: -100
y: -100
z: -100
---
header:
  stamp:
    sec: 1728657873
    nanosec: 895277941
  frame_id: ''
raw: mid:-1;x:-100;y:-100;z:-100;mpry:-1,-1,-1;pitch:-4;roll:0;yaw:-87;vgx:0;vgy:0;vgz:0;templ:65;temph:66;tof:276;h:280;bat:66;baro:...
sdk: 2
pitch: -4
roll: 0
yaw: -87
vgx: 0
vgy: 0
vgz: 0
templ: 65
temph: 66
tof: 276
h: 280
bat: 66
baro: 122.37000274658203
time: 184
agx: -72.0
agy: 0.0
agz: -996.0
mid: -1
x: -100
y: -100
z: -100
---
header:
  stamp:
    sec: 1728657873
    nanosec: 997182941
  frame_id: ''
raw: mid:-1;x:-100;y:-100;z:-100;mpry:-1,-1,-1;pitch:-4;roll:0;yaw:-87;vgx:0;vgy:0;vgz:0;templ:65;temph:66;tof:286;h:270;bat:66;baro:...
sdk: 2
pitch: -4
roll: 0
yaw: -87
vgx: 0
vgy: 0
vgz: 0
templ: 65
temph: 66
tof: 286
h: 270
bat: 66
baro: 122.36000061035156
time: 184
agx: -94.0
agy: 13.0
agz: -1019.0
mid: -1
x: -100
y: -100
z: -100
---
header:
  stamp:
    sec: 1728657874
    nanosec: 99161252
  frame_id: ''
raw: mid:-1;x:-100;y:-100;z:-100;mpry:-1,-1,-1;pitch:-4;roll:0;yaw:-87;vgx:0;vgy:0;vgz:0;templ:64;temph:67;tof:276;h:280;bat:66;baro:...
sdk: 2
pitch: -4
roll: 0
yaw: -87
vgx: 0
vgy: 0
vgz: 0
templ: 64
temph: 67
tof: 276
h: 280
bat: 66
baro: 122.4000015258789
time: 184
agx: -94.0
agy: -8.0
agz: -985.0
mid: -1
x: -100
y: -100
z: -100
---
header:
  stamp:
    sec: 1728657874
    nanosec: 201130875
  frame_id: ''
raw: mid:-1;x:-100;y:-100;z:-100;mpry:-1,-1,-1;pitch:-4;roll:0;yaw:-87;vgx:0;vgy:0;vgz:0;templ:64;temph:67;tof:284;h:270;bat:66;baro:...
sdk: 2
pitch: -4
roll: 0
yaw: -87
vgx: 0
vgy: 0
vgz: 0
templ: 64
temph: 67
tof: 284
h: 270
bat: 66
baro: 122.43000030517578
time: 184
agx: -62.0
agy: -14.0
agz: -998.0
mid: -1
x: -100
y: -100
z: -100
---
header:
  stamp:
    sec: 1728657874
    nanosec: 303168025
  frame_id: ''
raw: mid:-1;x:-100;y:-100;z:-100;mpry:-1,-1,-1;pitch:-4;roll:0;yaw:-87;vgx:0;vgy:0;vgz:0;templ:64;temph:67;tof:287;h:270;bat:66;baro:...
sdk: 2
pitch: -4
roll: 0
yaw: -87
vgx: 0
vgy: 0
vgz: 0
templ: 64
temph: 67
tof: 287
h: 270
bat: 66
baro: 122.33000183105469
time: 184
agx: -82.0
agy: -21.0
agz: -992.0
mid: -1
x: -100
y: -100
z: -100
---
header:
  stamp:
    sec: 1728657874
    nanosec: 405116082
  frame_id: ''
raw: mid:-1;x:-100;y:-100;z:-100;mpry:-1,-1,-1;pitch:-4;roll:0;yaw:-87;vgx:0;vgy:0;vgz:0;templ:64;temph:67;tof:285;h:280;bat:66;baro:...
sdk: 2
pitch: -4
roll: 0
yaw: -87
vgx: 0
vgy: 0
vgz: 0
templ: 64
temph: 67
tof: 285
h: 280
bat: 66
baro: 122.37999725341797
time: 185
agx: -63.0
agy: -12.0
agz: -1000.0
mid: -1
x: -100
y: -100
z: -100
---
header:
  stamp:
    sec: 1728657874
    nanosec: 507109152
  frame_id: ''
raw: mid:-1;x:-100;y:-100;z:-100;mpry:-1,-1,-1;pitch:-4;roll:0;yaw:-87;vgx:0;vgy:0;vgz:0;templ:64;temph:67;tof:279;h:280;bat:66;baro:...
sdk: 2
pitch: -4
roll: 0
yaw: -87
vgx: 0
vgy: 0
vgz: 0
templ: 64
temph: 67
tof: 279
h: 280
bat: 66
baro: 122.41000366210938
time: 185
agx: -85.0
agy: 11.0
agz: -985.0
mid: -1
x: -100
y: -100
z: -100
---
header:
  stamp:
    sec: 1728657874
    nanosec: 609247256
  frame_id: ''
raw: mid:-1;x:-100;y:-100;z:-100;mpry:-1,-1,-1;pitch:-4;roll:0;yaw:-87;vgx:0;vgy:0;vgz:0;templ:64;temph:67;tof:290;h:280;bat:66;baro:...
sdk: 2
pitch: -4
roll: 0
yaw: -87
vgx: 0
vgy: 0
vgz: 0
templ: 64
temph: 67
tof: 290
h: 280
bat: 66
baro: 122.43000030517578
time: 185
agx: -38.0
agy: -26.0
agz: -1021.0
mid: -1
x: -100
y: -100
z: -100
---
header:
  stamp:
    sec: 1728657874
    nanosec: 711454247
  frame_id: ''
raw: mid:-1;x:-100;y:-100;z:-100;mpry:-1,-1,-1;pitch:-3;roll:0;yaw:-87;vgx:0;vgy:0;vgz:0;templ:64;temph:67;tof:285;h:280;bat:66;baro:...
sdk: 2
pitch: -3
roll: 0
yaw: -87
vgx: 0
vgy: 0
vgz: 0
templ: 64
temph: 67
tof: 285
h: 280
bat: 66
baro: 122.37000274658203
time: 185
agx: -60.0
agy: -5.0
agz: -983.0
mid: -1
x: -100
y: -100
z: -100
---
header:
  stamp:
    sec: 1728657874
    nanosec: 815329934
  frame_id: ''
raw: mid:-1;x:-100;y:-100;z:-100;mpry:-1,-1,-1;pitch:-3;roll:0;yaw:-87;vgx:0;vgy:0;vgz:0;templ:64;temph:67;tof:292;h:280;bat:66;baro:...
sdk: 2
pitch: -3
roll: 0
yaw: -87
vgx: 0
vgy: 0
vgz: 0
templ: 64
temph: 67
tof: 292
h: 280
bat: 66
baro: 122.36000061035156
time: 185
agx: -77.0
agy: 0.0
agz: -982.0
mid: -1
x: -100
y: -100
z: -100
---
