header:
  stamp:
    sec: 1728657836
    nanosec: 647871163
  frame_id: ''
raw: mid:-1;x:-100;y:-100;z:-100;mpry:-1,-1,-1;pitch:0;roll:1;yaw:-87;vgx:0;vgy:0;vgz:-4;templ:68;temph:70;tof:10;h:0;bat:70;baro:119...
sdk: 2
pitch: 0
roll: 1
yaw: -87
vgx: 0
vgy: 0
vgz: -4
templ: 68
temph: 70
tof: 10
h: 0
bat: 70
baro: 119.94999694824219
time: 147
agx: -58.0
agy: -31.0
agz: -1321.0
mid: -1
x: -100
y: -100
z: -100
---
header:
  stamp:
    sec: 1728657836
    nanosec: 800924998
  frame_id: ''
raw: mid:-1;x:-100;y:-100;z:-100;mpry:-1,-1,-1;pitch:-1;roll:0;yaw:-87;vgx:0;vgy:1;vgz:-7;templ:69;temph:70;tof:12;h:10;bat:70;baro:1...
sdk: 2
pitch: -1
roll: 0
yaw: -87
vgx: 0
vgy: 1
vgz: -7
templ: 69
temph: 70
tof: 12
h: 10
bat: 70
baro: 120.2699966430664
time: 147
agx: -63.0
agy: 16.0
agz: -1131.0
mid: -1
x: -100
y: -100
z: -100
---
header:
  stamp:
    sec: 1728657836
    nanosec: 854192619
  frame_id: ''
raw: mid:-1;x:-100;y:-100;z:-100;mpry:-1,-1,-1;pitch:-3;roll:-1;yaw:-87;vgx:0;vgy:1;vgz:-8;templ:69;temph:70;tof:19;h:10;bat:70;baro:...
sdk: 2
pitch: -3
roll: -1
yaw: -87
vgx: 0
vgy: 1
vgz: -8
templ: 69
temph: 70
tof: 19
h: 10
bat: 70
baro: 120.30999755859375
time: 147
agx: -88.0
agy: 19.0
agz: -1074.0
mid: -1
x: -100
y: -100
z: -100
---
header:
  stamp:
    sec: 1728657836
    nanosec: 955542071
  frame_id: ''
raw: mid:-1;x:-100;y:-100;z:-100;mpry:-1,-1,-1;pitch:-4;roll:-1;yaw:-87;vgx:0;vgy:1;vgz:-8;templ:69;temph:70;tof:29;h:20;bat:70;baro:...
sdk: 2
pitch: -4
roll: -1
yaw: -87
vgx: 0
vgy: 1
vgz: -8
templ: 69
temph: 70
tof: 29
h: 20
bat: 70
baro: 120.4800033569336
time: 147
agx: -80.0
agy: -7.0
agz: -995.0
mid: -1
x: -100
y: -100
z: -100
---
header:
  stamp:
    sec: 1728657837
    nanosec: 56316039
  frame_id: ''
raw: mid:-1;x:-100;y:-100;z:-100;mpry:-1,-1,-1;pitch:-5;roll:0;yaw:-87;vgx:0;vgy:1;vgz:-8;templ:69;temph:70;tof:39;h:30;bat:70;baro:1...
sdk: 2
pitch: -5
roll: 0
yaw: -87
vgx: 0
vgy: 1
vgz: -8
templ: 69
temph: 70
tof: 39
h: 30
bat: 70
baro: 120.37000274658203
time: 147
agx: -56.0
agy: -8.0
agz: -915.0
mid: -1
x: -100
y: -100
z: -100
---
header:
  stamp:
    sec: 1728657837
    nanosec: 161065653
  frame_id: ''
raw: mid:-1;x:-100;y:-100;z:-100;mpry:-1,-1,-1;pitch:-5;roll:0;yaw:-87;vgx:0;vgy:1;vgz:-7;templ:69;temph:70;tof:47;h:40;bat:70;baro:1...
sdk: 2
pitch: -5
roll: 0
yaw: -87
vgx: 0
vgy: 1
vgz: -7
templ: 69
temph: 70
tof: 47
h: 40
bat: 70
baro: 120.55000305175781
time: 147
agx: -83.0
agy: 6.0
agz: -904.0
mid: -1
x: -100
y: -100
z: -100
---
header:
  stamp:
    sec: 1728657837
    nanosec: 260050830
  frame_id: ''
raw: mid:-1;x:-100;y:-100;z:-100;mpry:-1,-1,-1;pitch:-5;roll:0;yaw:-87;vgx:0;vgy:1;vgz:-6;templ:69;temph:70;tof:55;h:50;bat:70;baro:1...
sdk: 2
pitch: -5
roll: 0
yaw: -87
vgx: 0
vgy: 1
vgz: -6
templ: 69
temph: 70
tof: 55
h: 50
bat: 70
baro: 120.61000061035156
time: 147
agx: -62.0
agy: 4.0
agz: -876.0
mid: -1
x: -100
y: -100
z: -100
---
header:
  stamp:
    sec: 1728657837
    nanosec: 361898656
  frame_id: ''
raw: mid:-1;x:-100;y:-100;z:-100;mpry:-1,-1,-1;pitch:-5;roll:0;yaw:-87;vgx:0;vgy:0;vgz:-5;templ:69;temph:70;tof:60;h:50;bat:70;baro:1...
sdk: 2
pitch: -5
roll: 0
yaw: -87
vgx: 0
vgy: 0
vgz: -5
templ: 69
temph: 70
tof: 60
h: 50
bat: 70
baro: 120.69000244140625
time: 148
agx: -52.0
agy: 0.0
agz: -854.0
mid: -1
x: -100
y: -100
z: -100
---
header:
  stamp:
    sec: 1728657837
    nanosec: 471301249
  frame_id: ''
raw: mid:-1;x:-100;y:-100;z:-100;mpry:-1,-1,-1;pitch:-4;roll:-1;yaw:-87;vgx:0;vgy:0;vgz:-4;templ:69;temph:70;tof:65;h:60;bat:70;baro:...
sdk: 2
pitch: -4
roll: -1
yaw: -87
vgx: 0
vgy: 0
vgz: -4
templ: 69
temph: 70
tof: 65
h: 60
bat: 70
baro: 120.73999786376953
time: 148
agx: -83.0
agy: -10.0
agz: -865.0
mid: -1
x: -100
y: -100
z: -100
---
header:
  stamp:
    sec: 1728657837
    nanosec: 566362069
  frame_id: ''
raw: mid:-1;x:-100;y:-100;z:-100;mpry:-1,-1,-1;pitch:-5;roll:0;yaw:-87;vgx:0;vgy:0;vgz:-3;templ:69;temph:70;tof:69;h:60;bat:70;baro:1...
sdk: 2
pitch: -5
roll: 0
yaw: -87
vgx: 0
vgy: 0
vgz: -3
templ: 69
temph: 70
tof: 69
h: 60
bat: 70
baro: 120.69000244140625
time: 148
agx: -80.0
agy: 14.0
agz: -893.0
mid: -1
x: -100
y: -100
z: -100
---
header:
  stamp:
    sec: 1728657837
    nanosec: 668197255
  frame_id: ''
raw: mid:-1;x:-100;y:-100;z:-100;mpry:-1,-1,-1;pitch:-5;roll:-1;yaw:-87;vgx:0;vgy:0;vgz:-2;templ:69;temph:70;tof:72;h:60;bat:70;baro:...
sdk: 2
pitch: -5
roll: -1
yaw: -87
vgx: 0
vgy: 0
vgz: -2
templ: 69
temph: 70
tof: 72
h: 60
bat: 70
baro: 120.81999969482422
time: 148
agx: -71.0
agy: 12.0
agz: -924.0
mid: -1
x: -100
y: -100
z: -100
---
header:
  stamp:
    sec: 1728657837
    nanosec: 769887223
  frame_id: ''
raw: mid:-1;x:-100;y:-100;z:-100;mpry:-1,-1,-1;pitch:-5;roll:-1;yaw:-87;vgx:0;vgy:0;vgz:-1;templ:69;temph:70;tof:73;h:70;bat:70;baro:...
sdk: 2
pitch: -5
roll: -1
yaw: -87
vgx: 0
vgy: 0
vgz: -1
templ: 69
temph: 70
tof: 73
h: 70
bat: 70
baro: 120.91999816894531
time: 148
agx: -85.0
agy: 10.0
agz: -892.0
mid: -1
x: -100
y: -100
z: -100
---
header:
  stamp:
    sec: 1728657837
    nanosec: 871944154
  frame_id: ''
raw: mid:-1;x:-100;y:-100;z:-100;mpry:-1,-1,-1;pitch:-5;roll:0;yaw:-87;vgx:0;vgy:0;vgz:-1;templ:69;temph:70;tof:75;h:70;bat:70;baro:1...
sdk: 2
pitch: -5
roll: 0
yaw: -87
vgx: 0
vgy: 0
vgz: -1
templ: 69
temph: 70
tof: 75
h: 70
bat: 70
baro: 120.91000366210938
time: 148
agx: -69.0
agy: 1.0
agz: -937.0
mid: -1
x: -100
y: -100
z: -100
---
header:
  stamp:
    sec: 1728657837
    nanosec: 974107430
  frame_id: ''
raw: mid:-1;x:-100;y:-100;z:-100;mpry:-1,-1,-1;pitch:-5;roll:-1;yaw:-87;vgx:0;vgy:0;vgz:0;templ:69;temph:70;tof:77;h:70;bat:70;baro:1...
sdk: 2
pitch: -5
roll: -1
yaw: -87
vgx: 0
vgy: 0
vgz: 0
templ: 69
temph: 70
tof: 77
h: 70
bat: 70
baro: 120.83000183105469
time: 148
agx: -65.0
agy: 14.0
agz: -963.0
mid: -1
x: -100
y: -100
z: -100
---
header:
  stamp:
    sec: 1728657838
    nanosec: 76060161
  frame_id: ''
raw: mid:-1;x:-100;y:-100;z:-100;mpry:-1,-1,-1;pitch:-5;roll:-1;yaw:-87;vgx:0;vgy:0;vgz:0;templ:69;temph:70;tof:77;h:70;bat:70;baro:1...
sdk: 2
pitch: -5
roll: -1
yaw: -87
vgx: 0
vgy: 0
vgz: 0
templ: 69
temph: 70
tof: 77
h: 70
bat: 70
baro: 120.94000244140625
time: 148
agx: -80.0
agy: 19.0
agz: -960.0
mid: -1
x: -100
y: -100
z: -100
---
header:
  stamp:
    sec: 1728657838
    nanosec: 178196566
  frame_id: ''
raw: mid:-1;x:-100;y:-100;z:-100;mpry:-1,-1,-1;pitch:-5;roll:0;yaw:-87;vgx:0;vgy:0;vgz:0;templ:69;temph:70;tof:78;h:70;bat:70;baro:12...
sdk: 2
pitch: -5
roll: 0
yaw: -87
vgx: 0
vgy: 0
vgz: 0
templ: 69
temph: 70
tof: 78
h: 70
bat: 70
baro: 120.76000213623047
time: 148
agx: -63.0
agy: 9.0
agz: -1002.0
mid: -1
x: -100
y: -100
z: -100
---
header:
  stamp:
    sec: 1728657838
    nanosec: 284195180
  frame_id: ''
raw: mid:-1;x:-100;y:-100;z:-100;mpry:-1,-1,-1;pitch:-5;roll:0;yaw:-87;vgx:0;vgy:0;vgz:0;templ:69;temph:70;tof:77;h:70;bat:70;baro:12...
sdk: 2
pitch: -5
roll: 0
yaw: -87
vgx: 0
vgy: 0
vgz: 0
templ: 69
temph: 70
tof: 77
h: 70
bat: 70
baro: 120.87000274658203
time: 148
agx: -74.0
agy: 15.0
agz: -970.0
mid: -1
x: -100
y: -100
z: -100
---
header:
  stamp:
    sec: 1728657838
    nanosec: 384782430
  frame_id: ''
raw: mid:-1;x:-100;y:-100;z:-100;mpry:-1,-1,-1;pitch:-5;roll:0;yaw:-87;vgx:0;vgy:0;vgz:0;templ:69;temph:70;tof:78;h:70;bat:70;baro:12...
sdk: 2
pitch: -5
roll: 0
yaw: -87
vgx: 0
vgy: 0
vgz: 0
templ: 69
temph: 70
tof: 78
h: 70
bat: 70
baro: 120.81999969482422
time: 149
agx: -88.0
agy: 28.0
agz: -970.0
mid: -1
x: -100
y: -100
z: -100
---
header:
  stamp:
    sec: 1728657838
    nanosec: 486106006
  frame_id: ''
raw: mid:-1;x:-100;y:-100;z:-100;mpry:-1,-1,-1;pitch:-5;roll:-1;yaw:-87;vgx:0;vgy:0;vgz:0;templ:69;temph:70;tof:79;h:70;bat:70;baro:1...
sdk: 2
pitch: -5
roll: -1
yaw: -87
vgx: 0
vgy: 0
vgz: 0
templ: 69
temph: 70
tof: 79
h: 70
bat: 70
baro: 120.80999755859375
time: 149
agx: -91.0
agy: 17.0
agz: -983.0
mid: -1
x: -100
y: -100
z: -100
---
header:
  stamp:
    sec: 1728657838
    nanosec: 587760779
  frame_id: ''
raw: mid:-1;x:-100;y:-100;z:-100;mpry:-1,-1,-1;pitch:-5;roll:-1;yaw:-87;vgx:0;vgy:0;vgz:0;templ:69;temph:70;tof:80;h:70;bat:70;baro:1...
sdk: 2
pitch: -5
roll: -1
yaw: -87
vgx: 0
vgy: 0
vgz: 0
templ: 69
temph: 70
tof: 80
h: 70
bat: 70
baro: 120.87000274658203
time: 149
agx: -108.0
agy: 37.0
agz: -1006.0
mid: -1
x: -100
y: -100
z: -100
---
header:
  stamp:
    sec: 1728657838
    nanosec: 690012711
  frame_id: ''
raw: mid:-1;x:-100;y:-100;z:-100;mpry:-1,-1,-1;pitch:-5;roll:-1;yaw:-87;vgx:0;vgy:0;vgz:0;templ:69;temph:70;tof:79;h:70;bat:70;baro:1...
sdk: 2
pitch: -5
roll: -1
yaw: -87
vgx: 0
vgy: 0
vgz: 0
templ: 69
temph: 70
tof: 79
h: 70
bat: 70
baro: 120.86000061035156
time: 149
agx: -89.0
agy: 10.0
agz: -992.0
mid: -1
x: -100
y: -100
z: -100
---
header:
  stamp:
    sec: 1728657838
    nanosec: 791813817
  frame_id: ''
raw: mid:-1;x:-100;y:-100;z:-100;mpry:-1,-1,-1;pitch:-5;roll:0;yaw:-87;vgx:0;vgy:0;vgz:0;templ:68;temph:71;tof:81;h:70;bat:70;baro:12...
sdk: 2
pitch: -5
roll: 0
yaw: -87
vgx: 0
vgy: 0
vgz: 0
templ: 68
temph: 71
tof: 81
h: 70
bat: 70
baro: 120.91000366210938
time: 149
agx: -101.0
agy: 31.0
agz: -974.0
mid: -1
x: -100
y: -100
z: -100
---
header:
  stamp:
    sec: 1728657838
    nanosec: 893680740
  frame_id: ''
raw: mid:-1;x:-100;y:-100;z:-100;mpry:-1,-1,-1;pitch:-5;roll:0;yaw:-87;vgx:0;vgy:0;vgz:0;templ:68;temph:71;tof:79;h:70;bat:70;baro:12...
sdk: 2
pitch: -5
roll: 0
yaw: -87
vgx: 0
vgy: 0
vgz: 0
templ: 68
temph: 71
tof: 79
h: 70
bat: 70
baro: 120.83000183105469
time: 149
agx: -75.0
agy: 9.0
agz: -997.0
mid: -1
x: -100
y: -100
z: -100
---
header:
  stamp:
    sec: 1728657838
    nanosec: 994054373
  frame_id: ''
raw: mid:-1;x:-100;y:-100;z:-100;mpry:-1,-1,-1;pitch:-5;roll:0;yaw:-87;vgx:0;vgy:0;vgz:0;templ:68;temph:71;tof:80;h:70;bat:70;baro:12...
sdk: 2
pitch: -5
roll: 0
yaw: -87
vgx: 0
vgy: 0
vgz: 0
templ: 68
temph: 71
tof: 80
h: 70
bat: 70
baro: 120.91000366210938
time: 149
agx: -81.0
agy: 10.0
agz: -989.0
mid: -1
x: -100
y: -100
z: -100
---
header:
  stamp:
    sec: 1728657839
    nanosec: 95938776
  frame_id: ''
raw: mid:-1;x:-100;y:-100;z:-100;mpry:-1,-1,-1;pitch:-4;roll:0;yaw:-87;vgx:0;vgy:0;vgz:0;templ:68;temph:71;tof:82;h:70;bat:70;baro:12...
sdk: 2
pitch: -4
roll: 0
yaw: -87
vgx: 0
vgy: 0
vgz: 0
templ: 68
temph: 71
tof: 82
h: 70
bat: 70
baro: 120.91999816894531
time: 149
agx: -83.0
agy: 25.0
agz: -998.0
mid: -1
x: -100
y: -100
z: -100
---
header:
  stamp:
    sec: 1728657839
    nanosec: 197987868
  frame_id: ''
raw: mid:-1;x:-100;y:-100;z:-100;mpry:-1,-1,-1;pitch:-4;roll:0;yaw:-87;vgx:0;vgy:0;vgz:0;templ:68;temph:71;tof:81;h:80;bat:70;baro:12...
sdk: 2
pitch: -4
roll: 0
yaw: -87
vgx: 0
vgy: 0
vgz: 0
templ: 68
temph: 71
tof: 81
h: 80
bat: 70
baro: 120.83999633789062
time: 149
agx: -80.0
agy: 12.0
agz: -982.0
mid: -1
x: -100
y: -100
z: -100
---
header:
  stamp:
    sec: 1728657839
    nanosec: 299896692
  frame_id: ''
raw: mid:-1;x:-100;y:-100;z:-100;mpry:-1,-1,-1;pitch:-4;roll:0;yaw:-87;vgx:0;vgy:0;vgz:0;templ:68;temph:71;tof:82;h:70;bat:70;baro:12...
sdk: 2
pitch: -4
roll: 0
yaw: -87
vgx: 0
vgy: 0
vgz: 0
templ: 68
temph: 71
tof: 82
h: 70
bat: 70
baro: 120.73999786376953
time: 149
agx: -92.0
agy: 21.0
agz: -994.0
mid: -1
x: -100
y: -100
z: -100
---
header:
  stamp:
    sec: 1728657839
    nanosec: 402013374
  frame_id: ''
raw: mid:-1;x:-100;y:-100;z:-100;mpry:-1,-1,-1;pitch:-4;roll:0;yaw:-87;vgx:0;vgy:0;vgz:0;templ:68;temph:71;tof:81;h:70;bat:70;baro:12...
sdk: 2
pitch: -4
roll: 0
yaw: -87
vgx: 0
vgy: 0
vgz: 0
templ: 68
temph: 71
tof: 81
h: 70
bat: 70
baro: 120.8499984741211
time: 150
agx: -83.0
agy: -7.0
agz: -977.0
mid: -1
x: -100
y: -100
z: -100
---
header:
  stamp:
    sec: 1728657839
    nanosec: 503978550
  frame_id: ''
raw: mid:-1;x:-100;y:-100;z:-100;mpry:-1,-1,-1;pitch:-4;roll:0;yaw:-87;vgx:0;vgy:0;vgz:0;templ:68;temph:71;tof:81;h:70;bat:70;baro:12...
sdk: 2
pitch: -4
roll: 0
yaw: -87
vgx: 0
vgy: 0
vgz: 0
templ: 68
temph: 71
tof: 81
h: 70
bat: 70
baro: 120.81999969482422
time: 150
agx: -76.0
agy: 21.0
agz: -1017.0
mid: -1
x: -100
y: -100
z: -100
---
header:
  stamp:
    sec: 1728657839
    nanosec: 606006499
  frame_id: ''
raw: mid:-1;x:-100;y:-100;z:-100;mpry:-1,-1,-1;pitch:-5;roll:0;yaw:-87;vgx:0;vgy:0;vgz:0;templ:68;temph:71;tof:81;h:80;bat:70;baro:12...
sdk: 2
pitch: -5
roll: 0
yaw: -87
vgx: 0
vgy: 0
vgz: 0
templ: 68
temph: 71
tof: 81
h: 80
bat: 70
baro: 120.91000366210938
time: 150
agx: -104.0
agy: 12.0
agz: -982.0
mid: -1
x: -100
y: -100
z: -100
---
header:
  stamp:
    sec: 1728657839
    nanosec: 708026647
  frame_id: ''
raw: mid:-1;x:-100;y:-100;z:-100;mpry:-1,-1,-1;pitch:-5;roll:0;yaw:-87;vgx:0;vgy:0;vgz:0;templ:68;temph:71;tof:82;h:80;bat:70;baro:12...
sdk: 2
pitch: -5
roll: 0
yaw: -87
vgx: 0
vgy: 0
vgz: 0
templ: 68
temph: 71
tof: 82
h: 80
bat: 70
baro: 120.87999725341797
time: 150
agx: -68.0
agy: 9.0
agz: -985.0
mid: -1
x: -100
y: -100
z: -100
---
header:
  stamp:
    sec: 1728657839
    nanosec: 809963747
  frame_id: ''
raw: mid:-1;x:-100;y:-100;z:-100;mpry:-1,-1,-1;pitch:-5;roll:-1;yaw:-87;vgx:0;vgy:0;vgz:0;templ:69;temph:70;tof:82;h:80;bat:70;baro:1...
sdk: 2
pitch: -5
roll: -1
yaw: -87
vgx: 0
vgy: 0
vgz: 0
templ: 69
temph: 70
tof: 82
h: 80
bat: 70
baro: 120.75
time: 150
agx: -111.0
agy: 43.0
agz: -986.0
mid: -1
x: -100
y: -100
z: -100
---
header:
  stamp:
    sec: 1728657839
    nanosec: 911995721
  frame_id: ''
raw: mid:-1;x:-100;y:-100;z:-100;mpry:-1,-1,-1;pitch:-5;roll:0;yaw:-87;vgx:0;vgy:0;vgz:0;templ:69;temph:70;tof:81;h:80;bat:70;baro:12...
sdk: 2
pitch: -5
roll: 0
yaw: -87
vgx: 0
vgy: 0
vgz: 0
templ: 69
temph: 70
tof: 81
h: 80
bat: 70
baro: 120.83999633789062
time: 150
agx: -91.0
agy: -3.0
agz: -1038.0
mid: -1
x: -100
y: -100
z: -100
---
header:
  stamp:
    sec: 1728657840
    nanosec: 13810477
  frame_id: ''
raw: mid:-1;x:-100;y:-100;z:-100;mpry:-1,-1,-1;pitch:-5;roll:-1;yaw:-87;vgx:0;vgy:0;vgz:0;templ:69;temph:70;tof:82;h:80;bat:70;baro:1...
sdk: 2
pitch: -5
roll: -1
yaw: -87
vgx: 0
vgy: 0
vgz: 0
templ: 69
temph: 70
tof: 82
h: 80
bat: 70
baro: 120.77999877929688
time: 150
agx: -77.0
agy: -2.0
agz: -987.0
mid: -1
x: -100
y: -100
z: -100
---
header:
  stamp:
    sec: 1728657840
    nanosec: 116162794
  frame_id: ''
raw: mid:-1;x:-100;y:-100;z:-100;mpry:-1,-1,-1;pitch:-5;roll:-1;yaw:-87;vgx:0;vgy:0;vgz:0;templ:69;temph:70;tof:81;h:80;bat:70;baro:1...
sdk: 2
pitch: -5
roll: -1
yaw: -87
vgx: 0
vgy: 0
vgz: 0
templ: 69
temph: 70
tof: 81
h: 80
bat: 70
baro: 120.81999969482422
time: 150
agx: -79.0
agy: -12.0
agz: -979.0
mid: -1
x: -100
y: -100
z: -100
---
header:
  stamp:
    sec: 1728657840
    nanosec: 217963902
  frame_id: ''
raw: mid:-1;x:-100;y:-100;z:-100;mpry:-1,-1,-1;pitch:-5;roll:0;yaw:-87;vgx:0;vgy:0;vgz:0;templ:69;temph:70;tof:82;h:80;bat:70;baro:12...
sdk: 2
pitch: -5
roll: 0
yaw: -87
vgx: 0
vgy: 0
vgz: 0
templ: 69
temph: 70
tof: 82
h: 80
bat: 70
baro: 120.88999938964844
time: 150
agx: -79.0
agy: 0.0
agz: -990.0
mid: -1
x: -100
y: -100
z: -100
---
header:
  stamp:
    sec: 1728657840
    nanosec: 323787944
  frame_id: ''
raw: mid:-1;x:-100;y:-100;z:-100;mpry:-1,-1,-1;pitch:-4;roll:0;yaw:-87;vgx:0;vgy:0;vgz:0;templ:69;temph:70;tof:82;h:80;bat:70;baro:12...
sdk: 2
pitch: -4
roll: 0
yaw: -87
vgx: 0
vgy: 0
vgz: 0
templ: 69
temph: 70
tof: 82
h: 80
bat: 70
baro: 120.88999938964844
time: 150
agx: -68.0
agy: 20.0
agz: -1025.0
mid: -1
x: -100
y: -100
z: -100
---
header:
  stamp:
    sec: 1728657840
    nanosec: 421798595
  frame_id: ''
raw: mid:-1;x:-100;y:-100;z:-100;mpry:-1,-1,-1;pitch:-4;roll:0;yaw:-87;vgx:0;vgy:0;vgz:0;templ:69;temph:70;tof:80;h:80;bat:70;baro:12...
sdk: 2
pitch: -4
roll: 0
yaw: -87
vgx: 0
vgy: 0
vgz: 0
templ: 69
temph: 70
tof: 80
h: 80
bat: 70
baro: 120.83999633789062
time: 151
agx: -69.0
agy: 9.0
agz: -1022.0
mid: -1
x: -100
y: -100
z: -100
---
