header:
  stamp:
    sec: 1728658344
    nanosec: 578900391
  frame_id: ''
raw: mid:-1;x:-100;y:-100;z:-100;mpry:-1,-1,-1;pitch:-1;roll:0;yaw:-89;vgx:0;vgy:0;vgz:-2;templ:69;temph:71;tof:10;h:0;bat:26;baro:12...
sdk: 2
pitch: -1
roll: 0
yaw: -89
vgx: 0
vgy: 0
vgz: -2
templ: 69
temph: 71
tof: 10
h: 0
bat: 26
baro: 120.0999984741211
time: 443
agx: -1.0
agy: -10.0
agz: -1281.0
mid: -1
x: -100
y: -100
z: -100
---
header:
  stamp:
    sec: 1728658344
    nanosec: 680739807
  frame_id: ''
raw: mid:-1;x:-100;y:-100;z:-100;mpry:-1,-1,-1;pitch:0;roll:0;yaw:-89;vgx:0;vgy:0;vgz:-5;templ:69;temph:71;tof:11;h:0;bat:26;baro:120...
sdk: 2
pitch: 0
roll: 0
yaw: -89
vgx: 0
vgy: 0
vgz: -5
templ: 69
temph: 71
tof: 11
h: 0
bat: 26
baro: 120.19000244140625
time: 443
agx: -55.0
agy: 3.0
agz: -1156.0
mid: -1
x: -100
y: -100
z: -100
---
header:
  stamp:
    sec: 1728658344
    nanosec: 782875946
  frame_id: ''
raw: mid:-1;x:-100;y:-100;z:-100;mpry:-1,-1,-1;pitch:0;roll:0;yaw:-88;vgx:0;vgy:0;vgz:-6;templ:69;temph:71;tof:19;h:0;bat:26;baro:120...
sdk: 2
pitch: 0
roll: 0
yaw: -88
vgx: 0
vgy: 0
vgz: -6
templ: 69
temph: 71
tof: 19
h: 0
bat: 26
baro: 120.55999755859375
time: 443
agx: -57.0
agy: -1.0
agz: -1054.0
mid: -1
x: -100
y: -100
z: -100
---
header:
  stamp:
    sec: 1728658344
    nanosec: 884918442
  frame_id: ''
raw: mid:-1;x:-100;y:-100;z:-100;mpry:-1,-1,-1;pitch:-1;roll:0;yaw:-89;vgx:0;vgy:1;vgz:-7;templ:69;temph:71;tof:28;h:10;bat:26;baro:1...
sdk: 2
pitch: -1
roll: 0
yaw: -89
vgx: 0
vgy: 1
vgz: -7
templ: 69
temph: 71
tof: 28
h: 10
bat: 26
baro: 120.58999633789062
time: 443
agx: -34.0
agy: 23.0
agz: -1007.0
mid: -1
x: -100
y: -100
z: -100
---
header:
  stamp:
    sec: 1728658344
    nanosec: 987136220
  frame_id: ''
raw: mid:-1;x:-100;y:-100;z:-100;mpry:-1,-1,-1;pitch:-2;roll:0;yaw:-89;vgx:0;vgy:1;vgz:-7;templ:69;temph:71;tof:37;h:10;bat:26;baro:1...
sdk: 2
pitch: -2
roll: 0
yaw: -89
vgx: 0
vgy: 1
vgz: -7
templ: 69
temph: 71
tof: 37
h: 10
bat: 26
baro: 120.68000030517578
time: 443
agx: -32.0
agy: 4.0
agz: -956.0
mid: -1
x: -100
y: -100
z: -100
---
header:
  stamp:
    sec: 1728658345
    nanosec: 90016140
  frame_id: ''
raw: mid:-1;x:-100;y:-100;z:-100;mpry:-1,-1,-1;pitch:-3;roll:0;yaw:-89;vgx:0;vgy:1;vgz:-7;templ:69;temph:71;tof:46;h:20;bat:26;baro:1...
sdk: 2
pitch: -3
roll: 0
yaw: -89
vgx: 0
vgy: 1
vgz: -7
templ: 69
temph: 71
tof: 46
h: 20
bat: 26
baro: 120.68000030517578
time: 443
agx: -50.0
agy: -4.0
agz: -936.0
mid: -1
x: -100
y: -100
z: -100
---
header:
  stamp:
    sec: 1728658345
    nanosec: 192906764
  frame_id: ''
raw: mid:-1;x:-100;y:-100;z:-100;mpry:-1,-1,-1;pitch:-3;roll:-1;yaw:-89;vgx:0;vgy:1;vgz:-6;templ:69;temph:71;tof:56;h:20;bat:26;baro:...
sdk: 2
pitch: -3
roll: -1
yaw: -89
vgx: 0
vgy: 1
vgz: -6
templ: 69
temph: 71
tof: 56
h: 20
bat: 26
baro: 120.75
time: 443
agx: -74.0
agy: -9.0
agz: -913.0
mid: -1
x: -100
y: -100
z: -100
---
header:
  stamp:
    sec: 1728658345
    nanosec: 297114779
  frame_id: ''
raw: mid:-1;x:-100;y:-100;z:-100;mpry:-1,-1,-1;pitch:-3;roll:-1;yaw:-89;vgx:0;vgy:0;vgz:-6;templ:69;temph:71;tof:62;h:30;bat:26;baro:...
sdk: 2
pitch: -3
roll: -1
yaw: -89
vgx: 0
vgy: 0
vgz: -6
templ: 69
temph: 71
tof: 62
h: 30
bat: 26
baro: 120.93000030517578
time: 443
agx: -45.0
agy: -11.0
agz: -921.0
mid: -1
x: -100
y: -100
z: -100
---
header:
  stamp:
    sec: 1728658345
    nanosec: 399070881
  frame_id: ''
raw: mid:-1;x:-100;y:-100;z:-100;mpry:-1,-1,-1;pitch:-3;roll:0;yaw:-89;vgx:0;vgy:0;vgz:-5;templ:69;temph:72;tof:69;h:40;bat:26;baro:1...
sdk: 2
pitch: -3
roll: 0
yaw: -89
vgx: 0
vgy: 0
vgz: -5
templ: 69
temph: 72
tof: 69
h: 40
bat: 26
baro: 120.9800033569336
time: 444
agx: -55.0
agy: -12.0
agz: -913.0
mid: -1
x: -100
y: -100
z: -100
---
header:
  stamp:
    sec: 1728658345
    nanosec: 499264761
  frame_id: ''
raw: mid:-1;x:-100;y:-100;z:-100;mpry:-1,-1,-1;pitch:-3;roll:0;yaw:-89;vgx:0;vgy:0;vgz:-4;templ:69;temph:72;tof:76;h:40;bat:26;baro:1...
sdk: 2
pitch: -3
roll: 0
yaw: -89
vgx: 0
vgy: 0
vgz: -4
templ: 69
temph: 72
tof: 76
h: 40
bat: 26
baro: 121.05999755859375
time: 444
agx: -52.0
agy: -13.0
agz: -873.0
mid: -1
x: -100
y: -100
z: -100
---
header:
  stamp:
    sec: 1728658345
    nanosec: 599646250
  frame_id: ''
raw: mid:-1;x:-100;y:-100;z:-100;mpry:-1,-1,-1;pitch:-3;roll:0;yaw:-89;vgx:0;vgy:0;vgz:-3;templ:69;temph:72;tof:81;h:40;bat:26;baro:1...
sdk: 2
pitch: -3
roll: 0
yaw: -89
vgx: 0
vgy: 0
vgz: -3
templ: 69
temph: 72
tof: 81
h: 40
bat: 26
baro: 121.06999969482422
time: 444
agx: -49.0
agy: -17.0
agz: -886.0
mid: -1
x: -100
y: -100
z: -100
---
header:
  stamp:
    sec: 1728658345
    nanosec: 701935943
  frame_id: ''
raw: mid:-1;x:-100;y:-100;z:-100;mpry:-1,-1,-1;pitch:-3;roll:0;yaw:-89;vgx:0;vgy:0;vgz:-2;templ:69;temph:72;tof:83;h:50;bat:26;baro:1...
sdk: 2
pitch: -3
roll: 0
yaw: -89
vgx: 0
vgy: 0
vgz: -2
templ: 69
temph: 72
tof: 83
h: 50
bat: 26
baro: 121.05999755859375
time: 444
agx: -50.0
agy: -14.0
agz: -912.0
mid: -1
x: -100
y: -100
z: -100
---
header:
  stamp:
    sec: 1728658345
    nanosec: 803777762
  frame_id: ''
raw: mid:-1;x:-100;y:-100;z:-100;mpry:-1,-1,-1;pitch:-3;roll:1;yaw:-89;vgx:0;vgy:0;vgz:-1;templ:69;temph:72;tof:87;h:50;bat:26;baro:1...
sdk: 2
pitch: -3
roll: 1
yaw: -89
vgx: 0
vgy: 0
vgz: -1
templ: 69
temph: 72
tof: 87
h: 50
bat: 26
baro: 121.12000274658203
time: 444
agx: -82.0
agy: -22.0
agz: -908.0
mid: -1
x: -100
y: -100
z: -100
---
header:
  stamp:
    sec: 1728658345
    nanosec: 905602137
  frame_id: ''
raw: mid:-1;x:-100;y:-100;z:-100;mpry:-1,-1,-1;pitch:-3;roll:2;yaw:-89;vgx:0;vgy:0;vgz:0;templ:69;temph:72;tof:89;h:50;bat:26;baro:12...
sdk: 2
pitch: -3
roll: 2
yaw: -89
vgx: 0
vgy: 0
vgz: 0
templ: 69
temph: 72
tof: 89
h: 50
bat: 26
baro: 121.01000213623047
time: 444
agx: -37.0
agy: -39.0
agz: -931.0
mid: -1
x: -100
y: -100
z: -100
---
header:
  stamp:
    sec: 1728658346
    nanosec: 13940833
  frame_id: ''
raw: mid:-1;x:-100;y:-100;z:-100;mpry:-1,-1,-1;pitch:-3;roll:2;yaw:-89;vgx:0;vgy:0;vgz:0;templ:69;temph:72;tof:91;h:60;bat:26;baro:12...
sdk: 2
pitch: -3
roll: 2
yaw: -89
vgx: 0
vgy: 0
vgz: 0
templ: 69
temph: 72
tof: 91
h: 60
bat: 26
baro: 121.11000061035156
time: 444
agx: -54.0
agy: -26.0
agz: -951.0
mid: -1
x: -100
y: -100
z: -100
---
header:
  stamp:
    sec: 1728658346
    nanosec: 110119617
  frame_id: ''
raw: mid:-1;x:-100;y:-100;z:-100;mpry:-1,-1,-1;pitch:-3;roll:2;yaw:-89;vgx:0;vgy:0;vgz:0;templ:69;temph:72;tof:94;h:60;bat:26;baro:12...
sdk: 2
pitch: -3
roll: 2
yaw: -89
vgx: 0
vgy: 0
vgz: 0
templ: 69
temph: 72
tof: 94
h: 60
bat: 26
baro: 121.19999694824219
time: 444
agx: -72.0
agy: -29.0
agz: -941.0
mid: -1
x: -100
y: -100
z: -100
---
header:
  stamp:
    sec: 1728658346
    nanosec: 211654375
  frame_id: ''
raw: mid:-1;x:-100;y:-100;z:-100;mpry:-1,-1,-1;pitch:-3;roll:2;yaw:-89;vgx:0;vgy:0;vgz:0;templ:69;temph:72;tof:94;h:60;bat:26;baro:12...
sdk: 2
pitch: -3
roll: 2
yaw: -89
vgx: 0
vgy: 0
vgz: 0
templ: 69
temph: 72
tof: 94
h: 60
bat: 26
baro: 121.13999938964844
time: 444
agx: -56.0
agy: -29.0
agz: -955.0
mid: -1
x: -100
y: -100
z: -100
---
header:
  stamp:
    sec: 1728658346
    nanosec: 314104607
  frame_id: ''
raw: mid:-1;x:-100;y:-100;z:-100;mpry:-1,-1,-1;pitch:-3;roll:2;yaw:-89;vgx:0;vgy:0;vgz:0;templ:69;temph:72;tof:95;h:60;bat:26;baro:12...
sdk: 2
pitch: -3
roll: 2
yaw: -89
vgx: 0
vgy: 0
vgz: 0
templ: 69
temph: 72
tof: 95
h: 60
bat: 26
baro: 121.08999633789062
time: 444
agx: -60.0
agy: -25.0
agz: -969.0
mid: -1
x: -100
y: -100
z: -100
---
header:
  stamp:
    sec: 1728658346
    nanosec: 415770920
  frame_id: ''
raw: mid:-1;x:-100;y:-100;z:-100;mpry:-1,-1,-1;pitch:-3;roll:2;yaw:-89;vgx:0;vgy:0;vgz:0;templ:70;temph:72;tof:95;h:60;bat:26;baro:12...
sdk: 2
pitch: -3
roll: 2
yaw: -89
vgx: 0
vgy: 0
vgz: 0
templ: 70
temph: 72
tof: 95
h: 60
bat: 26
baro: 121.05999755859375
time: 445
agx: -63.0
agy: -35.0
agz: -966.0
mid: -1
x: -100
y: -100
z: -100
---
header:
  stamp:
    sec: 1728658346
    nanosec: 517798886
  frame_id: ''
raw: mid:-1;x:-100;y:-100;z:-100;mpry:-1,-1,-1;pitch:-3;roll:1;yaw:-89;vgx:0;vgy:0;vgz:0;templ:70;temph:72;tof:93;h:60;bat:26;baro:12...
sdk: 2
pitch: -3
roll: 1
yaw: -89
vgx: 0
vgy: 0
vgz: 0
templ: 70
temph: 72
tof: 93
h: 60
bat: 26
baro: 121.05999755859375
time: 445
agx: -73.0
agy: -33.0
agz: -984.0
mid: -1
x: -100
y: -100
z: -100
---
header:
  stamp:
    sec: 1728658346
    nanosec: 619907068
  frame_id: ''
raw: mid:-1;x:-100;y:-100;z:-100;mpry:-1,-1,-1;pitch:-4;roll:1;yaw:-89;vgx:0;vgy:0;vgz:0;templ:70;temph:72;tof:95;h:60;bat:26;baro:12...
sdk: 2
pitch: -4
roll: 1
yaw: -89
vgx: 0
vgy: 0
vgz: 0
templ: 70
temph: 72
tof: 95
h: 60
bat: 26
baro: 121.2300033569336
time: 445
agx: -61.0
agy: -55.0
agz: -1022.0
mid: -1
x: -100
y: -100
z: -100
---
header:
  stamp:
    sec: 1728658346
    nanosec: 721686974
  frame_id: ''
raw: mid:-1;x:-100;y:-100;z:-100;mpry:-1,-1,-1;pitch:-4;roll:2;yaw:-89;vgx:0;vgy:0;vgz:0;templ:70;temph:72;tof:95;h:60;bat:26;baro:12...
sdk: 2
pitch: -4
roll: 2
yaw: -89
vgx: 0
vgy: 0
vgz: 0
templ: 70
temph: 72
tof: 95
h: 60
bat: 26
baro: 121.05999755859375
time: 445
agx: -59.0
agy: -12.0
agz: -984.0
mid: -1
x: -100
y: -100
z: -100
---
header:
  stamp:
    sec: 1728658346
    nanosec: 823674992
  frame_id: ''
raw: mid:-1;x:-100;y:-100;z:-100;mpry:-1,-1,-1;pitch:-4;roll:2;yaw:-89;vgx:0;vgy:0;vgz:0;templ:70;temph:72;tof:94;h:60;bat:26;baro:12...
sdk: 2
pitch: -4
roll: 2
yaw: -89
vgx: 0
vgy: 0
vgz: 0
templ: 70
temph: 72
tof: 94
h: 60
bat: 26
baro: 121.05000305175781
time: 445
agx: -79.0
agy: -31.0
agz: -970.0
mid: -1
x: -100
y: -100
z: -100
---
header:
  stamp:
    sec: 1728658346
    nanosec: 926144692
  frame_id: ''
raw: mid:-1;x:-100;y:-100;z:-100;mpry:-1,-1,-1;pitch:-4;roll:2;yaw:-89;vgx:0;vgy:0;vgz:0;templ:70;temph:72;tof:93;h:60;bat:26;baro:12...
sdk: 2
pitch: -4
roll: 2
yaw: -89
vgx: 0
vgy: 0
vgz: 0
templ: 70
temph: 72
tof: 93
h: 60
bat: 26
baro: 121.08999633789062
time: 445
agx: -68.0
agy: -36.0
agz: -988.0
mid: -1
x: -100
y: -100
z: -100
---
header:
  stamp:
    sec: 1728658347
    nanosec: 27620204
  frame_id: ''
raw: mid:-1;x:-100;y:-100;z:-100;mpry:-1,-1,-1;pitch:-4;roll:1;yaw:-89;vgx:0;vgy:0;vgz:1;templ:70;temph:72;tof:92;h:60;bat:26;baro:12...
sdk: 2
pitch: -4
roll: 1
yaw: -89
vgx: 0
vgy: 0
vgz: 1
templ: 70
temph: 72
tof: 92
h: 60
bat: 26
baro: 121.05999755859375
time: 445
agx: -70.0
agy: -26.0
agz: -1002.0
mid: -1
x: -100
y: -100
z: -100
---
header:
  stamp:
    sec: 1728658347
    nanosec: 131334946
  frame_id: ''
raw: mid:-1;x:-100;y:-100;z:-100;mpry:-1,-1,-1;pitch:-4;roll:2;yaw:-89;vgx:0;vgy:0;vgz:0;templ:70;temph:72;tof:89;h:60;bat:26;baro:12...
sdk: 2
pitch: -4
roll: 2
yaw: -89
vgx: 0
vgy: 0
vgz: 0
templ: 70
temph: 72
tof: 89
h: 60
bat: 26
baro: 121.02999877929688
time: 445
agx: -34.0
agy: -45.0
agz: -1005.0
mid: -1
x: -100
y: -100
z: -100
---
header:
  stamp:
    sec: 1728658347
    nanosec: 235198473
  frame_id: ''
raw: mid:-1;x:-100;y:-100;z:-100;mpry:-1,-1,-1;pitch:-4;roll:2;yaw:-89;vgx:0;vgy:0;vgz:0;templ:70;temph:72;tof:88;h:60;bat:26;baro:12...
sdk: 2
pitch: -4
roll: 2
yaw: -89
vgx: 0
vgy: 0
vgz: 0
templ: 70
temph: 72
tof: 88
h: 60
bat: 26
baro: 121.11000061035156
time: 445
agx: -78.0
agy: -70.0
agz: -972.0
mid: -1
x: -100
y: -100
z: -100
---
header:
  stamp:
    sec: 1728658347
    nanosec: 336893069
  frame_id: ''
raw: mid:-1;x:-100;y:-100;z:-100;mpry:-1,-1,-1;pitch:-4;roll:2;yaw:-89;vgx:0;vgy:0;vgz:1;templ:70;temph:72;tof:89;h:60;bat:26;baro:12...
sdk: 2
pitch: -4
roll: 2
yaw: -89
vgx: 0
vgy: 0
vgz: 1
templ: 70
temph: 72
tof: 89
h: 60
bat: 26
baro: 121.16999816894531
time: 446
agx: -77.0
agy: -41.0
agz: -961.0
mid: -1
x: -100
y: -100
z: -100
---
header:
  stamp:
    sec: 1728658347
    nanosec: 436637818
  frame_id: ''
raw: mid:-1;x:-100;y:-100;z:-100;mpry:-1,-1,-1;pitch:-4;roll:3;yaw:-89;vgx:0;vgy:0;vgz:1;templ:71;temph:72;tof:87;h:60;bat:26;baro:12...
sdk: 2
pitch: -4
roll: 3
yaw: -89
vgx: 0
vgy: 0
vgz: 1
templ: 71
temph: 72
tof: 87
h: 60
bat: 26
baro: 121.16999816894531
time: 446
agx: -85.0
agy: -22.0
agz: -1001.0
mid: -1
x: -100
y: -100
z: -100
---
header:
  stamp:
    sec: 1728658347
    nanosec: 538640522
  frame_id: ''
raw: mid:-1;x:-100;y:-100;z:-100;mpry:-1,-1,-1;pitch:-4;roll:3;yaw:-89;vgx:0;vgy:0;vgz:0;templ:71;temph:72;tof:86;h:60;bat:26;baro:12...
sdk: 2
pitch: -4
roll: 3
yaw: -89
vgx: 0
vgy: 0
vgz: 0
templ: 71
temph: 72
tof: 86
h: 60
bat: 26
baro: 121.19000244140625
time: 446
agx: -90.0
agy: -27.0
agz: -986.0
mid: -1
x: -100
y: -100
z: -100
---
header:
  stamp:
    sec: 1728658347
    nanosec: 640667791
  frame_id: ''
raw: mid:-1;x:-100;y:-100;z:-100;mpry:-1,-1,-1;pitch:-4;roll:2;yaw:-89;vgx:0;vgy:0;vgz:0;templ:71;temph:72;tof:84;h:60;bat:26;baro:12...
sdk: 2
pitch: -4
roll: 2
yaw: -89
vgx: 0
vgy: 0
vgz: 0
templ: 71
temph: 72
tof: 84
h: 60
bat: 26
baro: 120.94000244140625
time: 446
agx: -78.0
agy: -30.0
agz: -993.0
mid: -1
x: -100
y: -100
z: -100
---
header:
  stamp:
    sec: 1728658347
    nanosec: 742594770
  frame_id: ''
raw: mid:-1;x:-100;y:-100;z:-100;mpry:-1,-1,-1;pitch:-4;roll:1;yaw:-89;vgx:0;vgy:0;vgz:0;templ:71;temph:72;tof:85;h:60;bat:26;baro:12...
sdk: 2
pitch: -4
roll: 1
yaw: -89
vgx: 0
vgy: 0
vgz: 0
templ: 71
temph: 72
tof: 85
h: 60
bat: 26
baro: 121.04000091552734
time: 446
agx: -54.0
agy: -72.0
agz: -1003.0
mid: -1
x: -100
y: -100
z: -100
---
header:
  stamp:
    sec: 1728658347
    nanosec: 844593618
  frame_id: ''
raw: mid:-1;x:-100;y:-100;z:-100;mpry:-1,-1,-1;pitch:-4;roll:2;yaw:-89;vgx:0;vgy:0;vgz:0;templ:71;temph:72;tof:84;h:60;bat:26;baro:12...
sdk: 2
pitch: -4
roll: 2
yaw: -89
vgx: 0
vgy: 0
vgz: 0
templ: 71
temph: 72
tof: 84
h: 60
bat: 26
baro: 121.0199966430664
time: 446
agx: -88.0
agy: -53.0
agz: -1001.0
mid: -1
x: -100
y: -100
z: -100
---
header:
  stamp:
    sec: 1728658347
    nanosec: 899276661
  frame_id: ''
raw: mid:-1;x:-100;y:-100;z:-100;mpry:-1,-1,-1;pitch:-4;roll:2;yaw:-89;vgx:0;vgy:0;vgz:0;templ:71;temph:72;tof:82;h:50;bat:26;baro:12...
sdk: 2
pitch: -4
roll: 2
yaw: -89
vgx: 0
vgy: 0
vgz: 0
templ: 71
temph: 72
tof: 82
h: 50
bat: 26
baro: 120.94000244140625
time: 446
agx: -67.0
agy: -46.0
agz: -1005.0
mid: -1
x: -100
y: -100
z: -100
---
header:
  stamp:
    sec: 1728658347
    nanosec: 997566658
  frame_id: ''
raw: mid:-1;x:-100;y:-100;z:-100;mpry:-1,-1,-1;pitch:-4;roll:2;yaw:-89;vgx:0;vgy:0;vgz:0;templ:71;temph:72;tof:81;h:50;bat:26;baro:12...
sdk: 2
pitch: -4
roll: 2
yaw: -89
vgx: 0
vgy: 0
vgz: 0
templ: 71
temph: 72
tof: 81
h: 50
bat: 26
baro: 120.91000366210938
time: 446
agx: -82.0
agy: -34.0
agz: -1004.0
mid: -1
x: -100
y: -100
z: -100
---
header:
  stamp:
    sec: 1728658348
    nanosec: 103882474
  frame_id: ''
raw: mid:-1;x:-100;y:-100;z:-100;mpry:-1,-1,-1;pitch:-4;roll:1;yaw:-89;vgx:0;vgy:0;vgz:0;templ:71;temph:72;tof:81;h:50;bat:26;baro:12...
sdk: 2
pitch: -4
roll: 1
yaw: -89
vgx: 0
vgy: 0
vgz: 0
templ: 71
temph: 72
tof: 81
h: 50
bat: 26
baro: 120.88999938964844
time: 446
agx: -34.0
agy: -52.0
agz: -1009.0
mid: -1
x: -100
y: -100
z: -100
---
header:
  stamp:
    sec: 1728658348
    nanosec: 202239191
  frame_id: ''
raw: mid:-1;x:-100;y:-100;z:-100;mpry:-1,-1,-1;pitch:-4;roll:1;yaw:-89;vgx:0;vgy:0;vgz:0;templ:71;temph:72;tof:80;h:50;bat:26;baro:12...
sdk: 2
pitch: -4
roll: 1
yaw: -89
vgx: 0
vgy: 0
vgz: 0
templ: 71
temph: 72
tof: 80
h: 50
bat: 26
baro: 121.01000213623047
time: 446
agx: -59.0
agy: -70.0
agz: -990.0
mid: -1
x: -100
y: -100
z: -100
---
header:
  stamp:
    sec: 1728658348
    nanosec: 304489723
  frame_id: ''
raw: mid:-1;x:-100;y:-100;z:-100;mpry:-1,-1,-1;pitch:-4;roll:2;yaw:-89;vgx:0;vgy:0;vgz:0;templ:71;temph:72;tof:79;h:50;bat:26;baro:12...
sdk: 2
pitch: -4
roll: 2
yaw: -89
vgx: 0
vgy: 0
vgz: 0
templ: 71
temph: 72
tof: 79
h: 50
bat: 26
baro: 121.0
time: 447
agx: -95.0
agy: -41.0
agz: -999.0
mid: -1
x: -100
y: -100
z: -100
---
