header:
  stamp:
    sec: 1728658176
    nanosec: 43773428
  frame_id: ''
raw: mid:-1;x:-100;y:-100;z:-100;mpry:-1,-1,-1;pitch:1;roll:0;yaw:-89;vgx:0;vgy:0;vgz:-1;templ:73;temph:75;tof:10;h:-10;bat:42;baro:1...
sdk: 2
pitch: 1
roll: 0
yaw: -89
vgx: 0
vgy: 0
vgz: -1
templ: 73
temph: 75
tof: 10
h: -10
bat: 42
baro: 120.04000091552734
time: 344
agx: -7.0
agy: -7.0
agz: -1092.0
mid: -1
x: -100
y: -100
z: -100
---
header:
  stamp:
    sec: 1728658176
    nanosec: 145856372
  frame_id: ''
raw: mid:-1;x:-100;y:-100;z:-100;mpry:-1,-1,-1;pitch:-1;roll:1;yaw:-90;vgx:0;vgy:0;vgz:-4;templ:73;temph:76;tof:10;h:-10;bat:42;baro:...
sdk: 2
pitch: -1
roll: 1
yaw: -90
vgx: 0
vgy: 0
vgz: -4
templ: 73
temph: 76
tof: 10
h: -10
bat: 42
baro: 120.04000091552734
time: 344
agx: -17.0
agy: -3.0
agz: -1185.0
mid: -1
x: -100
y: -100
z: -100
---
header:
  stamp:
    sec: 1728658176
    nanosec: 247873578
  frame_id: ''
raw: mid:-1;x:-100;y:-100;z:-100;mpry:-1,-1,-1;pitch:-2;roll:1;yaw:-90;vgx:0;vgy:1;vgz:-5;templ:73;temph:76;tof:16;h:-10;bat:42;baro:...
sdk: 2
pitch: -2
roll: 1
yaw: -90
vgx: 0
vgy: 1
vgz: -5
templ: 73
temph: 76
tof: 16
h: -10
bat: 42
baro: 120.45999908447266
time: 344
agx: -60.0
agy: -2.0
agz: -1330.0
mid: -1
x: -100
y: -100
z: -100
---
header:
  stamp:
    sec: 1728658176
    nanosec: 349843163
  frame_id: ''
raw: mid:-1;x:-100;y:-100;z:-100;mpry:-1,-1,-1;pitch:-2;roll:-1;yaw:-90;vgx:0;vgy:1;vgz:-5;templ:73;temph:76;tof:24;h:-10;bat:42;baro...
sdk: 2
pitch: -2
roll: -1
yaw: -90
vgx: 0
vgy: 1
vgz: -5
templ: 73
temph: 76
tof: 24
h: -10
bat: 42
baro: 120.55999755859375
time: 344
agx: -60.0
agy: 19.0
agz: -1122.0
mid: -1
x: -100
y: -100
z: -100
---
header:
  stamp:
    sec: 1728658176
    nanosec: 451888391
  frame_id: ''
raw: mid:-1;x:-100;y:-100;z:-100;mpry:-1,-1,-1;pitch:-3;roll:-2;yaw:-89;vgx:0;vgy:1;vgz:-6;templ:73;temph:76;tof:35;h:0;bat:42;baro:1...
sdk: 2
pitch: -3
roll: -2
yaw: -89
vgx: 0
vgy: 1
vgz: -6
templ: 73
temph: 76
tof: 35
h: 0
bat: 42
baro: 120.63999938964844
time: 345
agx: -61.0
agy: 18.0
agz: -1111.0
mid: -1
x: -100
y: -100
z: -100
---
header:
  stamp:
    sec: 1728658176
    nanosec: 553798374
  frame_id: ''
raw: mid:-1;x:-100;y:-100;z:-100;mpry:-1,-1,-1;pitch:-3;roll:-1;yaw:-89;vgx:0;vgy:1;vgz:-6;templ:73;temph:76;tof:46;h:0;bat:42;baro:1...
sdk: 2
pitch: -3
roll: -1
yaw: -89
vgx: 0
vgy: 1
vgz: -6
templ: 73
temph: 76
tof: 46
h: 0
bat: 42
baro: 120.76000213623047
time: 345
agx: -57.0
agy: -2.0
agz: -1109.0
mid: -1
x: -100
y: -100
z: -100
---
header:
  stamp:
    sec: 1728658176
    nanosec: 655787534
  frame_id: ''
raw: mid:-1;x:-100;y:-100;z:-100;mpry:-1,-1,-1;pitch:-4;roll:-1;yaw:-89;vgx:0;vgy:1;vgz:-6;templ:73;temph:76;tof:57;h:0;bat:42;baro:1...
sdk: 2
pitch: -4
roll: -1
yaw: -89
vgx: 0
vgy: 1
vgz: -6
templ: 73
temph: 76
tof: 57
h: 0
bat: 42
baro: 120.87000274658203
time: 345
agx: -47.0
agy: 38.0
agz: -1051.0
mid: -1
x: -100
y: -100
z: -100
---
header:
  stamp:
    sec: 1728658176
    nanosec: 758160884
  frame_id: ''
raw: mid:-1;x:-100;y:-100;z:-100;mpry:-1,-1,-1;pitch:-4;roll:-1;yaw:-89;vgx:0;vgy:1;vgz:-5;templ:73;temph:76;tof:67;h:0;bat:42;baro:1...
sdk: 2
pitch: -4
roll: -1
yaw: -89
vgx: 0
vgy: 1
vgz: -5
templ: 73
temph: 76
tof: 67
h: 0
bat: 42
baro: 120.93000030517578
time: 345
agx: -63.0
agy: 27.0
agz: -986.0
mid: -1
x: -100
y: -100
z: -100
---
header:
  stamp:
    sec: 1728658176
    nanosec: 863322605
  frame_id: ''
raw: mid:-1;x:-100;y:-100;z:-100;mpry:-1,-1,-1;pitch:-4;roll:-1;yaw:-89;vgx:0;vgy:0;vgz:-5;templ:73;temph:76;tof:78;h:10;bat:42;baro:...
sdk: 2
pitch: -4
roll: -1
yaw: -89
vgx: 0
vgy: 0
vgz: -5
templ: 73
temph: 76
tof: 78
h: 10
bat: 42
baro: 121.01000213623047
time: 345
agx: -53.0
agy: -7.0
agz: -954.0
mid: -1
x: -100
y: -100
z: -100
---
header:
  stamp:
    sec: 1728658176
    nanosec: 962146624
  frame_id: ''
raw: mid:-1;x:-100;y:-100;z:-100;mpry:-1,-1,-1;pitch:-4;roll:0;yaw:-89;vgx:0;vgy:0;vgz:-4;templ:73;temph:76;tof:87;h:10;bat:42;baro:1...
sdk: 2
pitch: -4
roll: 0
yaw: -89
vgx: 0
vgy: 0
vgz: -4
templ: 73
temph: 76
tof: 87
h: 10
bat: 42
baro: 121.05000305175781
time: 345
agx: -65.0
agy: -12.0
agz: -907.0
mid: -1
x: -100
y: -100
z: -100
---
header:
  stamp:
    sec: 1728658177
    nanosec: 64033910
  frame_id: ''
raw: mid:-1;x:-100;y:-100;z:-100;mpry:-1,-1,-1;pitch:-4;roll:0;yaw:-89;vgx:0;vgy:0;vgz:-2;templ:73;temph:76;tof:97;h:20;bat:42;baro:1...
sdk: 2
pitch: -4
roll: 0
yaw: -89
vgx: 0
vgy: 0
vgz: -2
templ: 73
temph: 76
tof: 97
h: 20
bat: 42
baro: 121.20999908447266
time: 345
agx: -73.0
agy: 3.0
agz: -866.0
mid: -1
x: -100
y: -100
z: -100
---
header:
  stamp:
    sec: 1728658177
    nanosec: 165744527
  frame_id: ''
raw: mid:-1;x:-100;y:-100;z:-100;mpry:-1,-1,-1;pitch:-4;roll:0;yaw:-89;vgx:0;vgy:0;vgz:-1;templ:73;temph:76;tof:102;h:20;bat:42;baro:...
sdk: 2
pitch: -4
roll: 0
yaw: -89
vgx: 0
vgy: 0
vgz: -1
templ: 73
temph: 76
tof: 102
h: 20
bat: 42
baro: 121.19000244140625
time: 345
agx: -82.0
agy: 16.0
agz: -872.0
mid: -1
x: -100
y: -100
z: -100
---
header:
  stamp:
    sec: 1728658177
    nanosec: 267752554
  frame_id: ''
raw: mid:-1;x:-100;y:-100;z:-100;mpry:-1,-1,-1;pitch:-4;roll:0;yaw:-89;vgx:0;vgy:0;vgz:0;templ:73;temph:76;tof:107;h:30;bat:42;baro:1...
sdk: 2
pitch: -4
roll: 0
yaw: -89
vgx: 0
vgy: 0
vgz: 0
templ: 73
temph: 76
tof: 107
h: 30
bat: 42
baro: 121.1500015258789
time: 345
agx: -87.0
agy: 4.0
agz: -853.0
mid: -1
x: -100
y: -100
z: -100
---
header:
  stamp:
    sec: 1728658177
    nanosec: 370621911
  frame_id: ''
raw: mid:-1;x:-100;y:-100;z:-100;mpry:-1,-1,-1;pitch:-5;roll:0;yaw:-89;vgx:0;vgy:0;vgz:0;templ:73;temph:76;tof:112;h:30;bat:42;baro:1...
sdk: 2
pitch: -5
roll: 0
yaw: -89
vgx: 0
vgy: 0
vgz: 0
templ: 73
temph: 76
tof: 112
h: 30
bat: 42
baro: 121.2300033569336
time: 345
agx: -61.0
agy: -5.0
agz: -878.0
mid: -1
x: -100
y: -100
z: -100
---
header:
  stamp:
    sec: 1728658177
    nanosec: 474375996
  frame_id: ''
raw: mid:-1;x:-100;y:-100;z:-100;mpry:-1,-1,-1;pitch:-5;roll:0;yaw:-89;vgx:0;vgy:0;vgz:0;templ:73;temph:76;tof:118;h:30;bat:42;baro:1...
sdk: 2
pitch: -5
roll: 0
yaw: -89
vgx: 0
vgy: 0
vgz: 0
templ: 73
temph: 76
tof: 118
h: 30
bat: 42
baro: 121.30000305175781
time: 346
agx: -56.0
agy: -17.0
agz: -924.0
mid: -1
x: -100
y: -100
z: -100
---
header:
  stamp:
    sec: 1728658177
    nanosec: 576239168
  frame_id: ''
raw: mid:-1;x:-100;y:-100;z:-100;mpry:-1,-1,-1;pitch:-5;roll:0;yaw:-89;vgx:0;vgy:0;vgz:1;templ:73;temph:76;tof:118;h:40;bat:42;baro:1...
sdk: 2
pitch: -5
roll: 0
yaw: -89
vgx: 0
vgy: 0
vgz: 1
templ: 73
temph: 76
tof: 118
h: 40
bat: 42
baro: 121.23999786376953
time: 346
agx: -94.0
agy: 14.0
agz: -917.0
mid: -1
x: -100
y: -100
z: -100
---
header:
  stamp:
    sec: 1728658177
    nanosec: 676848497
  frame_id: ''
raw: mid:-1;x:-100;y:-100;z:-100;mpry:-1,-1,-1;pitch:-5;roll:0;yaw:-89;vgx:0;vgy:0;vgz:1;templ:73;temph:76;tof:118;h:40;bat:42;baro:1...
sdk: 2
pitch: -5
roll: 0
yaw: -89
vgx: 0
vgy: 0
vgz: 1
templ: 73
temph: 76
tof: 118
h: 40
bat: 42
baro: 121.36000061035156
time: 346
agx: -76.0
agy: 23.0
agz: -936.0
mid: -1
x: -100
y: -100
z: -100
---
header:
  stamp:
    sec: 1728658177
    nanosec: 778878647
  frame_id: ''
raw: mid:-1;x:-100;y:-100;z:-100;mpry:-1,-1,-1;pitch:-5;roll:0;yaw:-89;vgx:0;vgy:0;vgz:2;templ:73;temph:76;tof:118;h:40;bat:42;baro:1...
sdk: 2
pitch: -5
roll: 0
yaw: -89
vgx: 0
vgy: 0
vgz: 2
templ: 73
temph: 76
tof: 118
h: 40
bat: 42
baro: 121.36000061035156
time: 346
agx: -46.0
agy: -5.0
agz: -957.0
mid: -1
x: -100
y: -100
z: -100
---
header:
  stamp:
    sec: 1728658177
    nanosec: 881028816
  frame_id: ''
raw: mid:-1;x:-100;y:-100;z:-100;mpry:-1,-1,-1;pitch:-5;roll:0;yaw:-89;vgx:0;vgy:0;vgz:2;templ:73;temph:76;tof:117;h:40;bat:42;baro:1...
sdk: 2
pitch: -5
roll: 0
yaw: -89
vgx: 0
vgy: 0
vgz: 2
templ: 73
temph: 76
tof: 117
h: 40
bat: 42
baro: 121.2300033569336
time: 346
agx: -72.0
agy: 0.0
agz: -949.0
mid: -1
x: -100
y: -100
z: -100
---
header:
  stamp:
    sec: 1728658177
    nanosec: 983176217
  frame_id: ''
raw: mid:-1;x:-100;y:-100;z:-100;mpry:-1,-1,-1;pitch:-4;roll:0;yaw:-89;vgx:0;vgy:0;vgz:2;templ:73;temph:76;tof:118;h:40;bat:42;baro:1...
sdk: 2
pitch: -4
roll: 0
yaw: -89
vgx: 0
vgy: 0
vgz: 2
templ: 73
temph: 76
tof: 118
h: 40
bat: 42
baro: 121.3499984741211
time: 346
agx: -84.0
agy: 0.0
agz: -955.0
mid: -1
x: -100
y: -100
z: -100
---
header:
  stamp:
    sec: 1728658178
    nanosec: 84987944
  frame_id: ''
raw: mid:-1;x:-100;y:-100;z:-100;mpry:-1,-1,-1;pitch:-4;roll:0;yaw:-89;vgx:0;vgy:0;vgz:2;templ:73;temph:76;tof:117;h:40;bat:42;baro:1...
sdk: 2
pitch: -4
roll: 0
yaw: -89
vgx: 0
vgy: 0
vgz: 2
templ: 73
temph: 76
tof: 117
h: 40
bat: 42
baro: 121.38999938964844
time: 346
agx: -73.0
agy: 10.0
agz: -975.0
mid: -1
x: -100
y: -100
z: -100
---
header:
  stamp:
    sec: 1728658178
    nanosec: 187008493
  frame_id: ''
raw: mid:-1;x:-100;y:-100;z:-100;mpry:-1,-1,-1;pitch:-4;roll:0;yaw:-89;vgx:0;vgy:0;vgz:2;templ:74;temph:76;tof:114;h:40;bat:42;baro:1...
sdk: 2
pitch: -4
roll: 0
yaw: -89
vgx: 0
vgy: 0
vgz: 2
templ: 74
temph: 76
tof: 114
h: 40
bat: 42
baro: 121.30000305175781
time: 346
agx: -50.0
agy: -16.0
agz: -988.0
mid: -1
x: -100
y: -100
z: -100
---
header:
  stamp:
    sec: 1728658178
    nanosec: 288888956
  frame_id: ''
raw: mid:-1;x:-100;y:-100;z:-100;mpry:-1,-1,-1;pitch:-4;roll:0;yaw:-89;vgx:0;vgy:0;vgz:2;templ:74;temph:76;tof:114;h:40;bat:42;baro:1...
sdk: 2
pitch: -4
roll: 0
yaw: -89
vgx: 0
vgy: 0
vgz: 2
templ: 74
temph: 76
tof: 114
h: 40
bat: 42
baro: 121.33999633789062
time: 346
agx: -78.0
agy: 8.0
agz: -987.0
mid: -1
x: -100
y: -100
z: -100
---
header:
  stamp:
    sec: 1728658178
    nanosec: 391169689
  frame_id: ''
raw: mid:-1;x:-100;y:-100;z:-100;mpry:-1,-1,-1;pitch:-4;roll:0;yaw:-89;vgx:0;vgy:0;vgz:2;templ:74;temph:76;tof:112;h:40;bat:42;baro:1...
sdk: 2
pitch: -4
roll: 0
yaw: -89
vgx: 0
vgy: 0
vgz: 2
templ: 74
temph: 76
tof: 112
h: 40
bat: 42
baro: 121.25
time: 346
agx: -76.0
agy: 3.0
agz: -975.0
mid: -1
x: -100
y: -100
z: -100
---
header:
  stamp:
    sec: 1728658178
    nanosec: 492895718
  frame_id: ''
raw: mid:-1;x:-100;y:-100;z:-100;mpry:-1,-1,-1;pitch:-4;roll:0;yaw:-89;vgx:0;vgy:0;vgz:2;templ:74;temph:76;tof:109;h:40;bat:42;baro:1...
sdk: 2
pitch: -4
roll: 0
yaw: -89
vgx: 0
vgy: 0
vgz: 2
templ: 74
temph: 76
tof: 109
h: 40
bat: 42
baro: 121.16999816894531
time: 347
agx: -90.0
agy: 22.0
agz: -969.0
mid: -1
x: -100
y: -100
z: -100
---
header:
  stamp:
    sec: 1728658178
    nanosec: 595034062
  frame_id: ''
raw: mid:-1;x:-100;y:-100;z:-100;mpry:-1,-1,-1;pitch:-4;roll:0;yaw:-89;vgx:0;vgy:0;vgz:2;templ:74;temph:76;tof:105;h:40;bat:42;baro:1...
sdk: 2
pitch: -4
roll: 0
yaw: -89
vgx: 0
vgy: 0
vgz: 2
templ: 74
temph: 76
tof: 105
h: 40
bat: 42
baro: 121.16000366210938
time: 347
agx: -65.0
agy: -9.0
agz: -990.0
mid: -1
x: -100
y: -100
z: -100
---
header:
  stamp:
    sec: 1728658178
    nanosec: 696891275
  frame_id: ''
raw: mid:-1;x:-100;y:-100;z:-100;mpry:-1,-1,-1;pitch:-4;roll:0;yaw:-89;vgx:0;vgy:0;vgz:2;templ:74;temph:76;tof:106;h:40;bat:42;baro:1...
sdk: 2
pitch: -4
roll: 0
yaw: -89
vgx: 0
vgy: 0
vgz: 2
templ: 74
temph: 76
tof: 106
h: 40
bat: 42
baro: 121.20999908447266
time: 347
agx: -68.0
agy: -1.0
agz: -994.0
mid: -1
x: -100
y: -100
z: -100
---
header:
  stamp:
    sec: 1728658178
    nanosec: 799000930
  frame_id: ''
raw: mid:-1;x:-100;y:-100;z:-100;mpry:-1,-1,-1;pitch:-4;roll:0;yaw:-89;vgx:0;vgy:0;vgz:2;templ:74;temph:76;tof:102;h:40;bat:42;baro:1...
sdk: 2
pitch: -4
roll: 0
yaw: -89
vgx: 0
vgy: 0
vgz: 2
templ: 74
temph: 76
tof: 102
h: 40
bat: 42
baro: 121.12000274658203
time: 347
agx: -86.0
agy: 3.0
agz: -1001.0
mid: -1
x: -100
y: -100
z: -100
---
header:
  stamp:
    sec: 1728658178
    nanosec: 901026017
  frame_id: ''
raw: mid:-1;x:-100;y:-100;z:-100;mpry:-1,-1,-1;pitch:-4;roll:0;yaw:-89;vgx:0;vgy:0;vgz:2;templ:74;temph:76;tof:100;h:30;bat:42;baro:1...
sdk: 2
pitch: -4
roll: 0
yaw: -89
vgx: 0
vgy: 0
vgz: 2
templ: 74
temph: 76
tof: 100
h: 30
bat: 42
baro: 121.19999694824219
time: 347
agx: -75.0
agy: 5.0
agz: -1012.0
mid: -1
x: -100
y: -100
z: -100
---
header:
  stamp:
    sec: 1728658179
    nanosec: 3888375
  frame_id: ''
raw: mid:-1;x:-100;y:-100;z:-100;mpry:-1,-1,-1;pitch:-4;roll:0;yaw:-89;vgx:0;vgy:0;vgz:2;templ:74;temph:76;tof:99;h:30;bat:42;baro:12...
sdk: 2
pitch: -4
roll: 0
yaw: -89
vgx: 0
vgy: 0
vgz: 2
templ: 74
temph: 76
tof: 99
h: 30
bat: 42
baro: 121.2300033569336
time: 347
agx: -53.0
agy: -23.0
agz: -1029.0
mid: -1
x: -100
y: -100
z: -100
---
header:
  stamp:
    sec: 1728658179
    nanosec: 106171689
  frame_id: ''
raw: mid:-1;x:-100;y:-100;z:-100;mpry:-1,-1,-1;pitch:-4;roll:0;yaw:-89;vgx:0;vgy:0;vgz:2;templ:74;temph:76;tof:94;h:30;bat:42;baro:12...
sdk: 2
pitch: -4
roll: 0
yaw: -89
vgx: 0
vgy: 0
vgz: 2
templ: 74
temph: 76
tof: 94
h: 30
bat: 42
baro: 121.1500015258789
time: 347
agx: -44.0
agy: -29.0
agz: -997.0
mid: -1
x: -100
y: -100
z: -100
---
header:
  stamp:
    sec: 1728658179
    nanosec: 206870842
  frame_id: ''
raw: mid:-1;x:-100;y:-100;z:-100;mpry:-1,-1,-1;pitch:-4;roll:0;yaw:-89;vgx:0;vgy:0;vgz:2;templ:74;temph:76;tof:90;h:30;bat:42;baro:12...
sdk: 2
pitch: -4
roll: 0
yaw: -89
vgx: 0
vgy: 0
vgz: 2
templ: 74
temph: 76
tof: 90
h: 30
bat: 42
baro: 121.16000366210938
time: 347
agx: -68.0
agy: 2.0
agz: -1011.0
mid: -1
x: -100
y: -100
z: -100
---
header:
  stamp:
    sec: 1728658179
    nanosec: 308805642
  frame_id: ''
raw: mid:-1;x:-100;y:-100;z:-100;mpry:-1,-1,-1;pitch:-4;roll:0;yaw:-89;vgx:0;vgy:0;vgz:1;templ:74;temph:76;tof:88;h:30;bat:42;baro:12...
sdk: 2
pitch: -4
roll: 0
yaw: -89
vgx: 0
vgy: 0
vgz: 1
templ: 74
temph: 76
tof: 88
h: 30
bat: 42
baro: 121.11000061035156
time: 347
agx: -81.0
agy: -22.0
agz: -1010.0
mid: -1
x: -100
y: -100
z: -100
---
header:
  stamp:
    sec: 1728658179
    nanosec: 410884320
  frame_id: ''
raw: mid:-1;x:-100;y:-100;z:-100;mpry:-1,-1,-1;pitch:-4;roll:0;yaw:-89;vgx:0;vgy:0;vgz:1;templ:74;temph:76;tof:87;h:30;bat:42;baro:12...
sdk: 2
pitch: -4
roll: 0
yaw: -89
vgx: 0
vgy: 0
vgz: 1
templ: 74
temph: 76
tof: 87
h: 30
bat: 42
baro: 121.06999969482422
time: 347
agx: -80.0
agy: 2.0
agz: -1010.0
mid: -1
x: -100
y: -100
z: -100
---
header:
  stamp:
    sec: 1728658179
    nanosec: 512842220
  frame_id: ''
raw: mid:-1;x:-100;y:-100;z:-100;mpry:-1,-1,-1;pitch:-3;roll:0;yaw:-89;vgx:0;vgy:0;vgz:1;templ:74;temph:76;tof:85;h:20;bat:42;baro:12...
sdk: 2
pitch: -3
roll: 0
yaw: -89
vgx: 0
vgy: 0
vgz: 1
templ: 74
temph: 76
tof: 85
h: 20
bat: 42
baro: 120.97000122070312
time: 348
agx: -51.0
agy: -29.0
agz: -1030.0
mid: -1
x: -100
y: -100
z: -100
---
header:
  stamp:
    sec: 1728658179
    nanosec: 615690794
  frame_id: ''
raw: mid:-1;x:-100;y:-100;z:-100;mpry:-1,-1,-1;pitch:-3;roll:0;yaw:-89;vgx:0;vgy:0;vgz:1;templ:74;temph:76;tof:83;h:20;bat:42;baro:12...
sdk: 2
pitch: -3
roll: 0
yaw: -89
vgx: 0
vgy: 0
vgz: 1
templ: 74
temph: 76
tof: 83
h: 20
bat: 42
baro: 121.05999755859375
time: 348
agx: -69.0
agy: 2.0
agz: -1015.0
mid: -1
x: -100
y: -100
z: -100
---
header:
  stamp:
    sec: 1728658179
    nanosec: 717723884
  frame_id: ''
raw: mid:-1;x:-100;y:-100;z:-100;mpry:-1,-1,-1;pitch:-4;roll:0;yaw:-89;vgx:0;vgy:0;vgz:1;templ:74;temph:76;tof:82;h:20;bat:42;baro:12...
sdk: 2
pitch: -4
roll: 0
yaw: -89
vgx: 0
vgy: 0
vgz: 1
templ: 74
temph: 76
tof: 82
h: 20
bat: 42
baro: 120.94000244140625
time: 348
agx: -67.0
agy: 9.0
agz: -1016.0
mid: -1
x: -100
y: -100
z: -100
---
header:
  stamp:
    sec: 1728658179
    nanosec: 819750803
  frame_id: ''
raw: mid:-1;x:-100;y:-100;z:-100;mpry:-1,-1,-1;pitch:-4;roll:0;yaw:-89;vgx:0;vgy:0;vgz:1;templ:74;temph:76;tof:79;h:20;bat:42;baro:12...
sdk: 2
pitch: -4
roll: 0
yaw: -89
vgx: 0
vgy: 0
vgz: 1
templ: 74
temph: 76
tof: 79
h: 20
bat: 42
baro: 120.91999816894531
time: 348
agx: -103.0
agy: 8.0
agz: -1010.0
mid: -1
x: -100
y: -100
z: -100
---
