header:
  stamp:
    sec: 1724949969
    nanosec: 689634619
  frame_id: ''
raw: mid:-1;x:-100;y:-100;z:-100;mpry:-1,-1,-1;pitch:0;roll:0;yaw:-25;vgx:0;vgy:0;vgz:-2;templ:77;temph:80;tof:10;h:0;bat:19;baro:102...
sdk: 2
pitch: 0
roll: 0
yaw: -25
vgx: 0
vgy: 0
vgz: -2
templ: 77
temph: 80
tof: 10
h: 0
bat: 19
baro: 102.31999969482422
time: 507
agx: -7.0
agy: 17.0
agz: -1187.0
mid: -1
x: -100
y: -100
z: -100
---
header:
  stamp:
    sec: 1724949969
    nanosec: 791654243
  frame_id: ''
raw: mid:-1;x:-100;y:-100;z:-100;mpry:-1,-1,-1;pitch:0;roll:0;yaw:-25;vgx:0;vgy:0;vgz:-4;templ:77;temph:80;tof:10;h:0;bat:19;baro:102...
sdk: 2
pitch: 0
roll: 0
yaw: -25
vgx: 0
vgy: 0
vgz: -4
templ: 77
temph: 80
tof: 10
h: 0
bat: 19
baro: 102.31999969482422
time: 507
agx: -41.0
agy: 65.0
agz: -1250.0
mid: -1
x: -100
y: -100
z: -100
---
header:
  stamp:
    sec: 1724949969
    nanosec: 893814088
  frame_id: ''
raw: mid:-1;x:-100;y:-100;z:-100;mpry:-1,-1,-1;pitch:-1;roll:-2;yaw:-25;vgx:0;vgy:1;vgz:-7;templ:77;temph:80;tof:11;h:10;bat:19;baro:...
sdk: 2
pitch: -1
roll: -2
yaw: -25
vgx: 0
vgy: 1
vgz: -7
templ: 77
temph: 80
tof: 11
h: 10
bat: 19
baro: 102.38999938964844
time: 507
agx: 3.0
agy: 47.0
agz: -1163.0
mid: -1
x: -100
y: -100
z: -100
---
header:
  stamp:
    sec: 1724949969
    nanosec: 996189428
  frame_id: ''
raw: mid:-1;x:-100;y:-100;z:-100;mpry:-1,-1,-1;pitch:-1;roll:-3;yaw:-25;vgx:0;vgy:1;vgz:-8;templ:77;temph:80;tof:20;h:20;bat:19;baro:...
sdk: 2
pitch: -1
roll: -3
yaw: -25
vgx: 0
vgy: 1
vgz: -8
templ: 77
temph: 80
tof: 20
h: 20
bat: 19
baro: 102.81999969482422
time: 507
agx: -11.0
agy: 46.0
agz: -1048.0
mid: -1
x: -100
y: -100
z: -100
---
header:
  stamp:
    sec: 1724949970
    nanosec: 97963191
  frame_id: ''
raw: mid:-1;x:-100;y:-100;z:-100;mpry:-1,-1,-1;pitch:0;roll:-3;yaw:-25;vgx:0;vgy:1;vgz:-8;templ:77;temph:80;tof:26;h:20;bat:19;baro:1...
sdk: 2
pitch: 0
roll: -3
yaw: -25
vgx: 0
vgy: 1
vgz: -8
templ: 77
temph: 80
tof: 26
h: 20
bat: 19
baro: 102.87000274658203
time: 507
agx: 13.0
agy: 30.0
agz: -1030.0
mid: -1
x: -100
y: -100
z: -100
---
header:
  stamp:
    sec: 1724949970
    nanosec: 199689769
  frame_id: ''
raw: mid:-1;x:-100;y:-100;z:-100;mpry:-1,-1,-1;pitch:0;roll:-3;yaw:-25;vgx:0;vgy:1;vgz:-8;templ:77;temph:80;tof:35;h:30;bat:19;baro:1...
sdk: 2
pitch: 0
roll: -3
yaw: -25
vgx: 0
vgy: 1
vgz: -8
templ: 77
temph: 80
tof: 35
h: 30
bat: 19
baro: 103.0
time: 507
agx: -17.0
agy: 60.0
agz: -966.0
mid: -1
x: -100
y: -100
z: -100
---
header:
  stamp:
    sec: 1724949970
    nanosec: 302464359
  frame_id: ''
raw: mid:-1;x:-100;y:-100;z:-100;mpry:-1,-1,-1;pitch:0;roll:-4;yaw:-25;vgx:0;vgy:0;vgz:-7;templ:77;temph:80;tof:43;h:40;bat:19;baro:1...
sdk: 2
pitch: 0
roll: -4
yaw: -25
vgx: 0
vgy: 0
vgz: -7
templ: 77
temph: 80
tof: 43
h: 40
bat: 19
baro: 103.08000183105469
time: 507
agx: -5.0
agy: 40.0
agz: -899.0
mid: -1
x: -100
y: -100
z: -100
---
header:
  stamp:
    sec: 1724949970
    nanosec: 403654042
  frame_id: ''
raw: mid:-1;x:-100;y:-100;z:-100;mpry:-1,-1,-1;pitch:0;roll:-4;yaw:-25;vgx:0;vgy:0;vgz:-6;templ:77;temph:80;tof:51;h:50;bat:19;baro:1...
sdk: 2
pitch: 0
roll: -4
yaw: -25
vgx: 0
vgy: 0
vgz: -6
templ: 77
temph: 80
tof: 51
h: 50
bat: 19
baro: 103.11000061035156
time: 507
agx: 9.0
agy: 46.0
agz: -912.0
mid: -1
x: -100
y: -100
z: -100
---
header:
  stamp:
    sec: 1724949970
    nanosec: 505621244
  frame_id: ''
raw: mid:-1;x:-100;y:-100;z:-100;mpry:-1,-1,-1;pitch:0;roll:-4;yaw:-25;vgx:0;vgy:0;vgz:-5;templ:77;temph:80;tof:57;h:50;bat:19;baro:1...
sdk: 2
pitch: 0
roll: -4
yaw: -25
vgx: 0
vgy: 0
vgz: -5
templ: 77
temph: 80
tof: 57
h: 50
bat: 19
baro: 103.12000274658203
time: 507
agx: 0.0
agy: 44.0
agz: -920.0
mid: -1
x: -100
y: -100
z: -100
---
header:
  stamp:
    sec: 1724949970
    nanosec: 607682571
  frame_id: ''
raw: mid:-1;x:-100;y:-100;z:-100;mpry:-1,-1,-1;pitch:0;roll:-4;yaw:-25;vgx:0;vgy:0;vgz:-4;templ:77;temph:80;tof:63;h:60;bat:19;baro:1...
sdk: 2
pitch: 0
roll: -4
yaw: -25
vgx: 0
vgy: 0
vgz: -4
templ: 77
temph: 80
tof: 63
h: 60
bat: 19
baro: 103.18000030517578
time: 508
agx: -38.0
agy: 46.0
agz: -876.0
mid: -1
x: -100
y: -100
z: -100
---
header:
  stamp:
    sec: 1724949970
    nanosec: 709638563
  frame_id: ''
raw: mid:-1;x:-100;y:-100;z:-100;mpry:-1,-1,-1;pitch:0;roll:-3;yaw:-25;vgx:0;vgy:0;vgz:-3;templ:77;temph:80;tof:67;h:60;bat:19;baro:1...
sdk: 2
pitch: 0
roll: -3
yaw: -25
vgx: 0
vgy: 0
vgz: -3
templ: 77
temph: 80
tof: 67
h: 60
bat: 19
baro: 103.19999694824219
time: 508
agx: -8.0
agy: 31.0
agz: -887.0
mid: -1
x: -100
y: -100
z: -100
---
header:
  stamp:
    sec: 1724949970
    nanosec: 811640298
  frame_id: ''
raw: mid:-1;x:-100;y:-100;z:-100;mpry:-1,-1,-1;pitch:-1;roll:-3;yaw:-25;vgx:0;vgy:0;vgz:-2;templ:77;temph:80;tof:71;h:60;bat:19;baro:...
sdk: 2
pitch: -1
roll: -3
yaw: -25
vgx: 0
vgy: 0
vgz: -2
templ: 77
temph: 80
tof: 71
h: 60
bat: 19
baro: 103.25
time: 508
agx: -23.0
agy: 49.0
agz: -887.0
mid: -1
x: -100
y: -100
z: -100
---
header:
  stamp:
    sec: 1724949970
    nanosec: 913569057
  frame_id: ''
raw: mid:-1;x:-100;y:-100;z:-100;mpry:-1,-1,-1;pitch:-1;roll:-3;yaw:-25;vgx:0;vgy:0;vgz:-1;templ:77;temph:80;tof:74;h:70;bat:19;baro:...
sdk: 2
pitch: -1
roll: -3
yaw: -25
vgx: 0
vgy: 0
vgz: -1
templ: 77
temph: 80
tof: 74
h: 70
bat: 19
baro: 103.2699966430664
time: 508
agx: 0.0
agy: 36.0
agz: -917.0
mid: -1
x: -100
y: -100
z: -100
---
header:
  stamp:
    sec: 1724949970
    nanosec: 972431472
  frame_id: ''
raw: mid:-1;x:-100;y:-100;z:-100;mpry:-1,-1,-1;pitch:0;roll:-2;yaw:-25;vgx:0;vgy:0;vgz:-1;templ:77;temph:80;tof:75;h:70;bat:19;baro:1...
sdk: 2
pitch: 0
roll: -2
yaw: -25
vgx: 0
vgy: 0
vgz: -1
templ: 77
temph: 80
tof: 75
h: 70
bat: 19
baro: 103.36000061035156
time: 508
agx: -7.0
agy: 45.0
agz: -916.0
mid: -1
x: -100
y: -100
z: -100
---
header:
  stamp:
    sec: 1724949971
    nanosec: 73121949
  frame_id: ''
raw: mid:-1;x:-100;y:-100;z:-100;mpry:-1,-1,-1;pitch:0;roll:-3;yaw:-25;vgx:0;vgy:0;vgz:0;templ:77;temph:80;tof:75;h:70;bat:19;baro:10...
sdk: 2
pitch: 0
roll: -3
yaw: -25
vgx: 0
vgy: 0
vgz: 0
templ: 77
temph: 80
tof: 75
h: 70
bat: 19
baro: 103.3499984741211
time: 508
agx: -7.0
agy: 46.0
agz: -932.0
mid: -1
x: -100
y: -100
z: -100
---
header:
  stamp:
    sec: 1724949971
    nanosec: 221561141
  frame_id: ''
raw: mid:-1;x:-100;y:-100;z:-100;mpry:-1,-1,-1;pitch:0;roll:-3;yaw:-25;vgx:0;vgy:0;vgz:0;templ:77;temph:80;tof:77;h:70;bat:19;baro:10...
sdk: 2
pitch: 0
roll: -3
yaw: -25
vgx: 0
vgy: 0
vgz: 0
templ: 77
temph: 80
tof: 77
h: 70
bat: 19
baro: 103.31999969482422
time: 508
agx: 5.0
agy: 37.0
agz: -990.0
mid: -1
x: -100
y: -100
z: -100
---
header:
  stamp:
    sec: 1724949971
    nanosec: 323587667
  frame_id: ''
raw: mid:-1;x:-100;y:-100;z:-100;mpry:-1,-1,-1;pitch:0;roll:-3;yaw:-25;vgx:0;vgy:0;vgz:0;templ:77;temph:80;tof:78;h:70;bat:19;baro:10...
sdk: 2
pitch: 0
roll: -3
yaw: -25
vgx: 0
vgy: 0
vgz: 0
templ: 77
temph: 80
tof: 78
h: 70
bat: 19
baro: 103.30000305175781
time: 508
agx: -12.0
agy: 51.0
agz: -1006.0
mid: -1
x: -100
y: -100
z: -100
---
header:
  stamp:
    sec: 1724949971
    nanosec: 425638131
  frame_id: ''
raw: mid:-1;x:-100;y:-100;z:-100;mpry:-1,-1,-1;pitch:0;roll:-2;yaw:-25;vgx:0;vgy:0;vgz:0;templ:77;temph:80;tof:79;h:70;bat:19;baro:10...
sdk: 2
pitch: 0
roll: -2
yaw: -25
vgx: 0
vgy: 0
vgz: 0
templ: 77
temph: 80
tof: 79
h: 70
bat: 19
baro: 103.33999633789062
time: 508
agx: 14.0
agy: 35.0
agz: -1003.0
mid: -1
x: -100
y: -100
z: -100
---
header:
  stamp:
    sec: 1724949971
    nanosec: 527664762
  frame_id: ''
raw: mid:-1;x:-100;y:-100;z:-100;mpry:-1,-1,-1;pitch:0;roll:-2;yaw:-25;vgx:0;vgy:0;vgz:0;templ:78;temph:80;tof:79;h:70;bat:19;baro:10...
sdk: 2
pitch: 0
roll: -2
yaw: -25
vgx: 0
vgy: 0
vgz: 0
templ: 78
temph: 80
tof: 79
h: 70
bat: 19
baro: 103.31999969482422
time: 508
agx: 2.0
agy: 37.0
agz: -998.0
mid: -1
x: -100
y: -100
z: -100
---
header:
  stamp:
    sec: 1724949971
    nanosec: 583745948
  frame_id: ''
raw: mid:-1;x:-100;y:-100;z:-100;mpry:-1,-1,-1;pitch:0;roll:-2;yaw:-25;vgx:0;vgy:0;vgz:0;templ:78;temph:80;tof:80;h:70;bat:19;baro:10...
sdk: 2
pitch: 0
roll: -2
yaw: -25
vgx: 0
vgy: 0
vgz: 0
templ: 78
temph: 80
tof: 80
h: 70
bat: 19
baro: 103.29000091552734
time: 509
agx: -15.0
agy: 42.0
agz: -993.0
mid: -1
x: -100
y: -100
z: -100
---
header:
  stamp:
    sec: 1724949971
    nanosec: 687321466
  frame_id: ''
raw: mid:-1;x:-100;y:-100;z:-100;mpry:-1,-1,-1;pitch:0;roll:-2;yaw:-25;vgx:0;vgy:0;vgz:0;templ:78;temph:80;tof:80;h:70;bat:19;baro:10...
sdk: 2
pitch: 0
roll: -2
yaw: -25
vgx: 0
vgy: 0
vgz: 0
templ: 78
temph: 80
tof: 80
h: 70
bat: 19
baro: 103.30999755859375
time: 509
agx: -30.0
agy: 61.0
agz: -986.0
mid: -1
x: -100
y: -100
z: -100
---
header:
  stamp:
    sec: 1724949971
    nanosec: 789596260
  frame_id: ''
raw: mid:-1;x:-100;y:-100;z:-100;mpry:-1,-1,-1;pitch:0;roll:-2;yaw:-25;vgx:0;vgy:0;vgz:0;templ:78;temph:80;tof:81;h:70;bat:19;baro:10...
sdk: 2
pitch: 0
roll: -2
yaw: -25
vgx: 0
vgy: 0
vgz: 0
templ: 78
temph: 80
tof: 81
h: 70
bat: 19
baro: 103.30999755859375
time: 509
agx: -3.0
agy: 53.0
agz: -985.0
mid: -1
x: -100
y: -100
z: -100
---
header:
  stamp:
    sec: 1724949971
    nanosec: 892096241
  frame_id: ''
raw: mid:-1;x:-100;y:-100;z:-100;mpry:-1,-1,-1;pitch:0;roll:-2;yaw:-25;vgx:0;vgy:0;vgz:0;templ:78;temph:80;tof:81;h:80;bat:19;baro:10...
sdk: 2
pitch: 0
roll: -2
yaw: -25
vgx: 0
vgy: 0
vgz: 0
templ: 78
temph: 80
tof: 81
h: 80
bat: 19
baro: 103.3499984741211
time: 509
agx: 9.0
agy: 33.0
agz: -987.0
mid: -1
x: -100
y: -100
z: -100
---
header:
  stamp:
    sec: 1724949971
    nanosec: 995147151
  frame_id: ''
raw: mid:-1;x:-100;y:-100;z:-100;mpry:-1,-1,-1;pitch:0;roll:-2;yaw:-25;vgx:0;vgy:0;vgz:0;templ:78;temph:80;tof:80;h:80;bat:19;baro:10...
sdk: 2
pitch: 0
roll: -2
yaw: -25
vgx: 0
vgy: 0
vgz: 0
templ: 78
temph: 80
tof: 80
h: 80
bat: 19
baro: 103.22000122070312
time: 509
agx: -1.0
agy: 43.0
agz: -986.0
mid: -1
x: -100
y: -100
z: -100
---
header:
  stamp:
    sec: 1724949972
    nanosec: 96847137
  frame_id: ''
raw: mid:-1;x:-100;y:-100;z:-100;mpry:-1,-1,-1;pitch:0;roll:-2;yaw:-25;vgx:0;vgy:0;vgz:0;templ:78;temph:80;tof:82;h:80;bat:19;baro:10...
sdk: 2
pitch: 0
roll: -2
yaw: -25
vgx: 0
vgy: 0
vgz: 0
templ: 78
temph: 80
tof: 82
h: 80
bat: 19
baro: 103.36000061035156
time: 509
agx: -28.0
agy: 43.0
agz: -984.0
mid: -1
x: -100
y: -100
z: -100
---
header:
  stamp:
    sec: 1724949972
    nanosec: 199126639
  frame_id: ''
raw: mid:-1;x:-100;y:-100;z:-100;mpry:-1,-1,-1;pitch:0;roll:-2;yaw:-25;vgx:0;vgy:0;vgz:0;templ:78;temph:80;tof:83;h:80;bat:19;baro:10...
sdk: 2
pitch: 0
roll: -2
yaw: -25
vgx: 0
vgy: 0
vgz: 0
templ: 78
temph: 80
tof: 83
h: 80
bat: 19
baro: 103.31999969482422
time: 509
agx: -20.0
agy: 59.0
agz: -979.0
mid: -1
x: -100
y: -100
z: -100
---
header:
  stamp:
    sec: 1724949972
    nanosec: 301730065
  frame_id: ''
raw: mid:-1;x:-100;y:-100;z:-100;mpry:-1,-1,-1;pitch:0;roll:-2;yaw:-25;vgx:0;vgy:0;vgz:0;templ:78;temph:80;tof:82;h:80;bat:19;baro:10...
sdk: 2
pitch: 0
roll: -2
yaw: -25
vgx: 0
vgy: 0
vgz: 0
templ: 78
temph: 80
tof: 82
h: 80
bat: 19
baro: 103.33999633789062
time: 509
agx: -7.0
agy: 55.0
agz: -1001.0
mid: -1
x: -100
y: -100
z: -100
---
header:
  stamp:
    sec: 1724949972
    nanosec: 404246871
  frame_id: ''
raw: mid:-1;x:-100;y:-100;z:-100;mpry:-1,-1,-1;pitch:0;roll:-2;yaw:-25;vgx:0;vgy:0;vgz:0;templ:78;temph:80;tof:82;h:80;bat:19;baro:10...
sdk: 2
pitch: 0
roll: -2
yaw: -25
vgx: 0
vgy: 0
vgz: 0
templ: 78
temph: 80
tof: 82
h: 80
bat: 19
baro: 103.30000305175781
time: 509
agx: -11.0
agy: 38.0
agz: -990.0
mid: -1
x: -100
y: -100
z: -100
---
header:
  stamp:
    sec: 1724949972
    nanosec: 505353596
  frame_id: ''
raw: mid:-1;x:-100;y:-100;z:-100;mpry:-1,-1,-1;pitch:0;roll:-3;yaw:-26;vgx:0;vgy:0;vgz:0;templ:77;temph:79;tof:82;h:80;bat:19;baro:10...
sdk: 2
pitch: 0
roll: -3
yaw: -26
vgx: 0
vgy: 0
vgz: 0
templ: 77
temph: 79
tof: 82
h: 80
bat: 19
baro: 103.3499984741211
time: 509
agx: -15.0
agy: 49.0
agz: -1006.0
mid: -1
x: -100
y: -100
z: -100
---
header:
  stamp:
    sec: 1724949972
    nanosec: 609725282
  frame_id: ''
raw: mid:-1;x:-100;y:-100;z:-100;mpry:-1,-1,-1;pitch:-1;roll:-3;yaw:-26;vgx:0;vgy:0;vgz:0;templ:77;temph:79;tof:82;h:80;bat:19;baro:1...
sdk: 2
pitch: -1
roll: -3
yaw: -26
vgx: 0
vgy: 0
vgz: 0
templ: 77
temph: 79
tof: 82
h: 80
bat: 19
baro: 103.27999877929688
time: 510
agx: -19.0
agy: 40.0
agz: -1014.0
mid: -1
x: -100
y: -100
z: -100
---
header:
  stamp:
    sec: 1724949972
    nanosec: 714802905
  frame_id: ''
raw: mid:-1;x:-100;y:-100;z:-100;mpry:-1,-1,-1;pitch:-1;roll:-2;yaw:-26;vgx:0;vgy:0;vgz:0;templ:77;temph:79;tof:82;h:80;bat:19;baro:1...
sdk: 2
pitch: -1
roll: -2
yaw: -26
vgx: 0
vgy: 0
vgz: 0
templ: 77
temph: 79
tof: 82
h: 80
bat: 19
baro: 103.30000305175781
time: 510
agx: -14.0
agy: 22.0
agz: -989.0
mid: -1
x: -100
y: -100
z: -100
---
header:
  stamp:
    sec: 1724949972
    nanosec: 814053121
  frame_id: ''
raw: mid:-1;x:-100;y:-100;z:-100;mpry:-1,-1,-1;pitch:-1;roll:-3;yaw:-26;vgx:0;vgy:0;vgz:0;templ:77;temph:79;tof:81;h:80;bat:19;baro:1...
sdk: 2
pitch: -1
roll: -3
yaw: -26
vgx: 0
vgy: 0
vgz: 0
templ: 77
temph: 79
tof: 81
h: 80
bat: 19
baro: 103.30999755859375
time: 510
agx: -20.0
agy: 58.0
agz: -997.0
mid: -1
x: -100
y: -100
z: -100
---
header:
  stamp:
    sec: 1724949972
    nanosec: 916203749
  frame_id: ''
raw: mid:-1;x:-100;y:-100;z:-100;mpry:-1,-1,-1;pitch:-1;roll:-2;yaw:-26;vgx:0;vgy:0;vgz:0;templ:77;temph:79;tof:81;h:80;bat:19;baro:1...
sdk: 2
pitch: -1
roll: -2
yaw: -26
vgx: 0
vgy: 0
vgz: 0
templ: 77
temph: 79
tof: 81
h: 80
bat: 19
baro: 103.33999633789062
time: 510
agx: -11.0
agy: 44.0
agz: -1007.0
mid: -1
x: -100
y: -100
z: -100
---
header:
  stamp:
    sec: 1724949973
    nanosec: 17192381
  frame_id: ''
raw: mid:-1;x:-100;y:-100;z:-100;mpry:-1,-1,-1;pitch:-2;roll:-2;yaw:-26;vgx:0;vgy:0;vgz:0;templ:77;temph:79;tof:81;h:80;bat:19;baro:1...
sdk: 2
pitch: -2
roll: -2
yaw: -26
vgx: 0
vgy: 0
vgz: 0
templ: 77
temph: 79
tof: 81
h: 80
bat: 19
baro: 103.27999877929688
time: 510
agx: 0.0
agy: 42.0
agz: -1018.0
mid: -1
x: -100
y: -100
z: -100
---
header:
  stamp:
    sec: 1724949973
    nanosec: 120887738
  frame_id: ''
raw: mid:-1;x:-100;y:-100;z:-100;mpry:-1,-1,-1;pitch:-1;roll:-2;yaw:-26;vgx:0;vgy:0;vgz:0;templ:77;temph:79;tof:80;h:80;bat:19;baro:1...
sdk: 2
pitch: -1
roll: -2
yaw: -26
vgx: 0
vgy: 0
vgz: 0
templ: 77
temph: 79
tof: 80
h: 80
bat: 19
baro: 103.31999969482422
time: 510
agx: -38.0
agy: 45.0
agz: -983.0
mid: -1
x: -100
y: -100
z: -100
---
header:
  stamp:
    sec: 1724949973
    nanosec: 221938801
  frame_id: ''
raw: mid:-1;x:-100;y:-100;z:-100;mpry:-1,-1,-1;pitch:-1;roll:-2;yaw:-25;vgx:0;vgy:0;vgz:0;templ:77;temph:79;tof:80;h:80;bat:19;baro:1...
sdk: 2
pitch: -1
roll: -2
yaw: -25
vgx: 0
vgy: 0
vgz: 0
templ: 77
temph: 79
tof: 80
h: 80
bat: 19
baro: 103.30999755859375
time: 510
agx: -18.0
agy: 29.0
agz: -1003.0
mid: -1
x: -100
y: -100
z: -100
---
header:
  stamp:
    sec: 1724949973
    nanosec: 327173089
  frame_id: ''
raw: mid:-1;x:-100;y:-100;z:-100;mpry:-1,-1,-1;pitch:-1;roll:-2;yaw:-25;vgx:0;vgy:0;vgz:0;templ:77;temph:79;tof:79;h:80;bat:19;baro:1...
sdk: 2
pitch: -1
roll: -2
yaw: -25
vgx: 0
vgy: 0
vgz: 0
templ: 77
temph: 79
tof: 79
h: 80
bat: 19
baro: 103.30000305175781
time: 510
agx: -27.0
agy: 47.0
agz: -995.0
mid: -1
x: -100
y: -100
z: -100
---
header:
  stamp:
    sec: 1724949973
    nanosec: 426614669
  frame_id: ''
raw: mid:-1;x:-100;y:-100;z:-100;mpry:-1,-1,-1;pitch:-1;roll:-2;yaw:-25;vgx:0;vgy:0;vgz:0;templ:77;temph:79;tof:81;h:80;bat:19;baro:1...
sdk: 2
pitch: -1
roll: -2
yaw: -25
vgx: 0
vgy: 0
vgz: 0
templ: 77
temph: 79
tof: 81
h: 80
bat: 19
baro: 103.27999877929688
time: 510
agx: -56.0
agy: 42.0
agz: -999.0
mid: -1
x: -100
y: -100
z: -100
---
