header:
  stamp:
    sec: 1724942383
    nanosec: 313325156
  frame_id: ''
raw: mid:-1;x:-100;y:-100;z:-100;mpry:-1,-1,-1;pitch:-1;roll:1;yaw:116;vgx:0;vgy:0;vgz:-1;templ:80;temph:82;tof:10;h:0;bat:53;baro:10...
sdk: 2
pitch: -1
roll: 1
yaw: 116
vgx: 0
vgy: 0
vgz: -1
templ: 80
temph: 82
tof: 10
h: 0
bat: 53
baro: 105.5199966430664
time: 215
agx: -13.0
agy: 23.0
agz: -1326.0
mid: -1
x: -100
y: -100
z: -100
---
header:
  stamp:
    sec: 1724942383
    nanosec: 414767258
  frame_id: ''
raw: mid:-1;x:-100;y:-100;z:-100;mpry:-1,-1,-1;pitch:0;roll:0;yaw:116;vgx:0;vgy:0;vgz:-4;templ:80;temph:82;tof:10;h:0;bat:53;baro:105...
sdk: 2
pitch: 0
roll: 0
yaw: 116
vgx: 0
vgy: 0
vgz: -4
templ: 80
temph: 82
tof: 10
h: 0
bat: 53
baro: 105.5199966430664
time: 215
agx: -8.0
agy: 8.0
agz: -1330.0
mid: -1
x: -100
y: -100
z: -100
---
header:
  stamp:
    sec: 1724942383
    nanosec: 517312733
  frame_id: ''
raw: mid:-1;x:-100;y:-100;z:-100;mpry:-1,-1,-1;pitch:1;roll:-1;yaw:117;vgx:0;vgy:0;vgz:-6;templ:80;temph:82;tof:12;h:0;bat:53;baro:10...
sdk: 2
pitch: 1
roll: -1
yaw: 117
vgx: 0
vgy: 0
vgz: -6
templ: 80
temph: 82
tof: 12
h: 0
bat: 53
baro: 105.79000091552734
time: 215
agx: -3.0
agy: 16.0
agz: -1182.0
mid: -1
x: -100
y: -100
z: -100
---
header:
  stamp:
    sec: 1724942383
    nanosec: 618854089
  frame_id: ''
raw: mid:-1;x:-100;y:-100;z:-100;mpry:-1,-1,-1;pitch:0;roll:-1;yaw:117;vgx:0;vgy:0;vgz:-7;templ:80;temph:82;tof:22;h:0;bat:53;baro:10...
sdk: 2
pitch: 0
roll: -1
yaw: 117
vgx: 0
vgy: 0
vgz: -7
templ: 80
temph: 82
tof: 22
h: 0
bat: 53
baro: 105.97000122070312
time: 215
agx: -1.0
agy: 76.0
agz: -1008.0
mid: -1
x: -100
y: -100
z: -100
---
header:
  stamp:
    sec: 1724942383
    nanosec: 720776302
  frame_id: ''
raw: mid:-1;x:-100;y:-100;z:-100;mpry:-1,-1,-1;pitch:-1;roll:-2;yaw:116;vgx:0;vgy:0;vgz:-7;templ:80;temph:81;tof:33;h:0;bat:53;baro:1...
sdk: 2
pitch: -1
roll: -2
yaw: 116
vgx: 0
vgy: 0
vgz: -7
templ: 80
temph: 81
tof: 33
h: 0
bat: 53
baro: 106.04000091552734
time: 215
agx: -20.0
agy: 37.0
agz: -1015.0
mid: -1
x: -100
y: -100
z: -100
---
header:
  stamp:
    sec: 1724942383
    nanosec: 822806310
  frame_id: ''
raw: mid:-1;x:-100;y:-100;z:-100;mpry:-1,-1,-1;pitch:0;roll:-3;yaw:116;vgx:0;vgy:0;vgz:-8;templ:80;temph:81;tof:43;h:10;bat:53;baro:1...
sdk: 2
pitch: 0
roll: -3
yaw: 116
vgx: 0
vgy: 0
vgz: -8
templ: 80
temph: 81
tof: 43
h: 10
bat: 53
baro: 106.04000091552734
time: 216
agx: -46.0
agy: 17.0
agz: -949.0
mid: -1
x: -100
y: -100
z: -100
---
header:
  stamp:
    sec: 1724942383
    nanosec: 928150896
  frame_id: ''
raw: mid:-1;x:-100;y:-100;z:-100;mpry:-1,-1,-1;pitch:0;roll:-2;yaw:116;vgx:0;vgy:0;vgz:-7;templ:80;temph:81;tof:54;h:20;bat:53;baro:1...
sdk: 2
pitch: 0
roll: -2
yaw: 116
vgx: 0
vgy: 0
vgz: -7
templ: 80
temph: 81
tof: 54
h: 20
bat: 53
baro: 106.26000213623047
time: 216
agx: -41.0
agy: 25.0
agz: -933.0
mid: -1
x: -100
y: -100
z: -100
---
header:
  stamp:
    sec: 1724942384
    nanosec: 28767678
  frame_id: ''
raw: mid:-1;x:-100;y:-100;z:-100;mpry:-1,-1,-1;pitch:-1;roll:-1;yaw:117;vgx:0;vgy:0;vgz:-6;templ:80;temph:81;tof:63;h:20;bat:53;baro:...
sdk: 2
pitch: -1
roll: -1
yaw: 117
vgx: 0
vgy: 0
vgz: -6
templ: 80
temph: 81
tof: 63
h: 20
bat: 53
baro: 106.23999786376953
time: 216
agx: -10.0
agy: -2.0
agz: -936.0
mid: -1
x: -100
y: -100
z: -100
---
header:
  stamp:
    sec: 1724942384
    nanosec: 128795705
  frame_id: ''
raw: mid:-1;x:-100;y:-100;z:-100;mpry:-1,-1,-1;pitch:-2;roll:-1;yaw:117;vgx:0;vgy:0;vgz:-5;templ:80;temph:81;tof:72;h:30;bat:53;baro:...
sdk: 2
pitch: -2
roll: -1
yaw: 117
vgx: 0
vgy: 0
vgz: -5
templ: 80
temph: 81
tof: 72
h: 30
bat: 53
baro: 106.41999816894531
time: 216
agx: -75.0
agy: 27.0
agz: -879.0
mid: -1
x: -100
y: -100
z: -100
---
header:
  stamp:
    sec: 1724942384
    nanosec: 230769618
  frame_id: ''
raw: mid:-1;x:-100;y:-100;z:-100;mpry:-1,-1,-1;pitch:-1;roll:0;yaw:117;vgx:0;vgy:0;vgz:-4;templ:80;temph:81;tof:79;h:40;bat:53;baro:1...
sdk: 2
pitch: -1
roll: 0
yaw: 117
vgx: 0
vgy: 0
vgz: -4
templ: 80
temph: 81
tof: 79
h: 40
bat: 53
baro: 106.41999816894531
time: 216
agx: 1.0
agy: -2.0
agz: -903.0
mid: -1
x: -100
y: -100
z: -100
---
header:
  stamp:
    sec: 1724942384
    nanosec: 282003467
  frame_id: ''
raw: mid:-1;x:-100;y:-100;z:-100;mpry:-1,-1,-1;pitch:-1;roll:-1;yaw:117;vgx:0;vgy:0;vgz:-3;templ:80;temph:81;tof:85;h:40;bat:53;baro:...
sdk: 2
pitch: -1
roll: -1
yaw: 117
vgx: 0
vgy: 0
vgz: -3
templ: 80
temph: 81
tof: 85
h: 40
bat: 53
baro: 106.55999755859375
time: 216
agx: -25.0
agy: 32.0
agz: -845.0
mid: -1
x: -100
y: -100
z: -100
---
header:
  stamp:
    sec: 1724942384
    nanosec: 383713396
  frame_id: ''
raw: mid:-1;x:-100;y:-100;z:-100;mpry:-1,-1,-1;pitch:-1;roll:-2;yaw:117;vgx:0;vgy:0;vgz:-1;templ:80;temph:81;tof:91;h:40;bat:53;baro:...
sdk: 2
pitch: -1
roll: -2
yaw: 117
vgx: 0
vgy: 0
vgz: -1
templ: 80
temph: 81
tof: 91
h: 40
bat: 53
baro: 106.62000274658203
time: 216
agx: -36.0
agy: 56.0
agz: -823.0
mid: -1
x: -100
y: -100
z: -100
---
header:
  stamp:
    sec: 1724942384
    nanosec: 486609329
  frame_id: ''
raw: mid:-1;x:-100;y:-100;z:-100;mpry:-1,-1,-1;pitch:-2;roll:-3;yaw:117;vgx:0;vgy:0;vgz:0;templ:80;temph:81;tof:92;h:50;bat:53;baro:1...
sdk: 2
pitch: -2
roll: -3
yaw: 117
vgx: 0
vgy: 0
vgz: 0
templ: 80
temph: 81
tof: 92
h: 50
bat: 53
baro: 106.69999694824219
time: 216
agx: -20.0
agy: 41.0
agz: -821.0
mid: -1
x: -100
y: -100
z: -100
---
header:
  stamp:
    sec: 1724942384
    nanosec: 589215736
  frame_id: ''
raw: mid:-1;x:-100;y:-100;z:-100;mpry:-1,-1,-1;pitch:-2;roll:-3;yaw:117;vgx:0;vgy:0;vgz:0;templ:80;temph:81;tof:98;h:50;bat:53;baro:1...
sdk: 2
pitch: -2
roll: -3
yaw: 117
vgx: 0
vgy: 0
vgz: 0
templ: 80
temph: 81
tof: 98
h: 50
bat: 53
baro: 106.83999633789062
time: 216
agx: -10.0
agy: 43.0
agz: -866.0
mid: -1
x: -100
y: -100
z: -100
---
header:
  stamp:
    sec: 1724942384
    nanosec: 741498718
  frame_id: ''
raw: mid:-1;x:-100;y:-100;z:-100;mpry:-1,-1,-1;pitch:-1;roll:-3;yaw:117;vgx:0;vgy:0;vgz:0;templ:80;temph:82;tof:98;h:50;bat:53;baro:1...
sdk: 2
pitch: -1
roll: -3
yaw: 117
vgx: 0
vgy: 0
vgz: 0
templ: 80
temph: 82
tof: 98
h: 50
bat: 53
baro: 106.66000366210938
time: 216
agx: 20.0
agy: 59.0
agz: -975.0
mid: -1
x: -100
y: -100
z: -100
---
header:
  stamp:
    sec: 1724942384
    nanosec: 843459595
  frame_id: ''
raw: mid:-1;x:-100;y:-100;z:-100;mpry:-1,-1,-1;pitch:-1;roll:-3;yaw:117;vgx:0;vgy:0;vgz:0;templ:80;temph:82;tof:100;h:50;bat:53;baro:...
sdk: 2
pitch: -1
roll: -3
yaw: 117
vgx: 0
vgy: 0
vgz: 0
templ: 80
temph: 82
tof: 100
h: 50
bat: 53
baro: 106.72000122070312
time: 217
agx: -15.0
agy: 90.0
agz: -935.0
mid: -1
x: -100
y: -100
z: -100
---
header:
  stamp:
    sec: 1724942384
    nanosec: 945784858
  frame_id: ''
raw: mid:-1;x:-100;y:-100;z:-100;mpry:-1,-1,-1;pitch:-1;roll:-3;yaw:117;vgx:0;vgy:0;vgz:0;templ:80;temph:82;tof:99;h:50;bat:53;baro:1...
sdk: 2
pitch: -1
roll: -3
yaw: 117
vgx: 0
vgy: 0
vgz: 0
templ: 80
temph: 82
tof: 99
h: 50
bat: 53
baro: 106.73999786376953
time: 217
agx: 8.0
agy: 91.0
agz: -973.0
mid: -1
x: -100
y: -100
z: -100
---
header:
  stamp:
    sec: 1724942385
    nanosec: 47589289
  frame_id: ''
raw: mid:-1;x:-100;y:-100;z:-100;mpry:-1,-1,-1;pitch:0;roll:-4;yaw:117;vgx:-1;vgy:0;vgz:1;templ:80;temph:82;tof:97;h:50;bat:53;baro:1...
sdk: 2
pitch: 0
roll: -4
yaw: 117
vgx: -1
vgy: 0
vgz: 1
templ: 80
temph: 82
tof: 97
h: 50
bat: 53
baro: 106.75
time: 217
agx: -8.0
agy: 80.0
agz: -982.0
mid: -1
x: -100
y: -100
z: -100
---
header:
  stamp:
    sec: 1724942385
    nanosec: 98660997
  frame_id: ''
raw: mid:-1;x:-100;y:-100;z:-100;mpry:-1,-1,-1;pitch:0;roll:-5;yaw:116;vgx:-1;vgy:0;vgz:1;templ:80;temph:82;tof:97;h:50;bat:53;baro:1...
sdk: 2
pitch: 0
roll: -5
yaw: 116
vgx: -1
vgy: 0
vgz: 1
templ: 80
temph: 82
tof: 97
h: 50
bat: 53
baro: 106.69000244140625
time: 217
agx: -19.0
agy: 105.0
agz: -976.0
mid: -1
x: -100
y: -100
z: -100
---
header:
  stamp:
    sec: 1724942385
    nanosec: 200682562
  frame_id: ''
raw: mid:-1;x:-100;y:-100;z:-100;mpry:-1,-1,-1;pitch:0;roll:-5;yaw:116;vgx:0;vgy:0;vgz:1;templ:80;temph:82;tof:104;h:50;bat:53;baro:1...
sdk: 2
pitch: 0
roll: -5
yaw: 116
vgx: 0
vgy: 0
vgz: 1
templ: 80
temph: 82
tof: 104
h: 50
bat: 53
baro: 106.63999938964844
time: 217
agx: -4.0
agy: 81.0
agz: -977.0
mid: -1
x: -100
y: -100
z: -100
---
header:
  stamp:
    sec: 1724942385
    nanosec: 302554138
  frame_id: ''
raw: mid:-1;x:-100;y:-100;z:-100;mpry:-1,-1,-1;pitch:0;roll:-5;yaw:116;vgx:0;vgy:0;vgz:1;templ:80;temph:82;tof:100;h:60;bat:53;baro:1...
sdk: 2
pitch: 0
roll: -5
yaw: 116
vgx: 0
vgy: 0
vgz: 1
templ: 80
temph: 82
tof: 100
h: 60
bat: 53
baro: 106.73999786376953
time: 217
agx: -42.0
agy: 111.0
agz: -963.0
mid: -1
x: -100
y: -100
z: -100
---
header:
  stamp:
    sec: 1724942385
    nanosec: 404674729
  frame_id: ''
raw: mid:-1;x:-100;y:-100;z:-100;mpry:-1,-1,-1;pitch:0;roll:-5;yaw:116;vgx:0;vgy:0;vgz:1;templ:80;temph:82;tof:97;h:50;bat:53;baro:10...
sdk: 2
pitch: 0
roll: -5
yaw: 116
vgx: 0
vgy: 0
vgz: 1
templ: 80
temph: 82
tof: 97
h: 50
bat: 53
baro: 106.66999816894531
time: 217
agx: -19.0
agy: 74.0
agz: -988.0
mid: -1
x: -100
y: -100
z: -100
---
header:
  stamp:
    sec: 1724942385
    nanosec: 506524087
  frame_id: ''
raw: mid:-1;x:-100;y:-100;z:-100;mpry:-1,-1,-1;pitch:0;roll:-6;yaw:116;vgx:0;vgy:0;vgz:1;templ:80;temph:82;tof:96;h:50;bat:53;baro:10...
sdk: 2
pitch: 0
roll: -6
yaw: 116
vgx: 0
vgy: 0
vgz: 1
templ: 80
temph: 82
tof: 96
h: 50
bat: 53
baro: 106.75
time: 217
agx: -5.0
agy: 64.0
agz: -1026.0
mid: -1
x: -100
y: -100
z: -100
---
header:
  stamp:
    sec: 1724942385
    nanosec: 608713590
  frame_id: ''
raw: mid:-1;x:-100;y:-100;z:-100;mpry:-1,-1,-1;pitch:-1;roll:-5;yaw:116;vgx:0;vgy:0;vgz:1;templ:80;temph:82;tof:97;h:50;bat:53;baro:1...
sdk: 2
pitch: -1
roll: -5
yaw: 116
vgx: 0
vgy: 0
vgz: 1
templ: 80
temph: 82
tof: 97
h: 50
bat: 53
baro: 106.69000244140625
time: 217
agx: -33.0
agy: 101.0
agz: -961.0
mid: -1
x: -100
y: -100
z: -100
---
header:
  stamp:
    sec: 1724942385
    nanosec: 710698548
  frame_id: ''
raw: mid:-1;x:-100;y:-100;z:-100;mpry:-1,-1,-1;pitch:-1;roll:-5;yaw:117;vgx:0;vgy:0;vgz:1;templ:80;temph:82;tof:94;h:50;bat:53;baro:1...
sdk: 2
pitch: -1
roll: -5
yaw: 117
vgx: 0
vgy: 0
vgz: 1
templ: 80
temph: 82
tof: 94
h: 50
bat: 53
baro: 106.63999938964844
time: 217
agx: -9.0
agy: 101.0
agz: -998.0
mid: -1
x: -100
y: -100
z: -100
---
header:
  stamp:
    sec: 1724942385
    nanosec: 812475400
  frame_id: ''
raw: mid:-1;x:-100;y:-100;z:-100;mpry:-1,-1,-1;pitch:-1;roll:-5;yaw:117;vgx:0;vgy:0;vgz:1;templ:80;temph:82;tof:94;h:50;bat:53;baro:1...
sdk: 2
pitch: -1
roll: -5
yaw: 117
vgx: 0
vgy: 0
vgz: 1
templ: 80
temph: 82
tof: 94
h: 50
bat: 53
baro: 106.66999816894531
time: 218
agx: -28.0
agy: 100.0
agz: -990.0
mid: -1
x: -100
y: -100
z: -100
---
header:
  stamp:
    sec: 1724942385
    nanosec: 914509172
  frame_id: ''
raw: mid:-1;x:-100;y:-100;z:-100;mpry:-1,-1,-1;pitch:-1;roll:-6;yaw:117;vgx:0;vgy:0;vgz:1;templ:80;temph:82;tof:93;h:50;bat:53;baro:1...
sdk: 2
pitch: -1
roll: -6
yaw: 117
vgx: 0
vgy: 0
vgz: 1
templ: 80
temph: 82
tof: 93
h: 50
bat: 53
baro: 106.72000122070312
time: 218
agx: -22.0
agy: 89.0
agz: -1012.0
mid: -1
x: -100
y: -100
z: -100
---
header:
  stamp:
    sec: 1724942386
    nanosec: 17296821
  frame_id: ''
raw: mid:-1;x:-100;y:-100;z:-100;mpry:-1,-1,-1;pitch:0;roll:-6;yaw:117;vgx:0;vgy:0;vgz:1;templ:80;temph:82;tof:88;h:50;bat:53;baro:10...
sdk: 2
pitch: 0
roll: -6
yaw: 117
vgx: 0
vgy: 0
vgz: 1
templ: 80
temph: 82
tof: 88
h: 50
bat: 53
baro: 106.6500015258789
time: 218
agx: 0.0
agy: 106.0
agz: -1019.0
mid: -1
x: -100
y: -100
z: -100
---
header:
  stamp:
    sec: 1724942386
    nanosec: 118625004
  frame_id: ''
raw: mid:-1;x:-100;y:-100;z:-100;mpry:-1,-1,-1;pitch:-1;roll:-5;yaw:116;vgx:0;vgy:0;vgz:1;templ:80;temph:82;tof:89;h:50;bat:53;baro:1...
sdk: 2
pitch: -1
roll: -5
yaw: 116
vgx: 0
vgy: 0
vgz: 1
templ: 80
temph: 82
tof: 89
h: 50
bat: 53
baro: 106.66999816894531
time: 218
agx: -20.0
agy: 90.0
agz: -1010.0
mid: -1
x: -100
y: -100
z: -100
---
header:
  stamp:
    sec: 1724942386
    nanosec: 220710909
  frame_id: ''
raw: mid:-1;x:-100;y:-100;z:-100;mpry:-1,-1,-1;pitch:-1;roll:-5;yaw:116;vgx:0;vgy:0;vgz:1;templ:80;temph:82;tof:91;h:50;bat:53;baro:1...
sdk: 2
pitch: -1
roll: -5
yaw: 116
vgx: 0
vgy: 0
vgz: 1
templ: 80
temph: 82
tof: 91
h: 50
bat: 53
baro: 106.58000183105469
time: 218
agx: -21.0
agy: 83.0
agz: -1009.0
mid: -1
x: -100
y: -100
z: -100
---
header:
  stamp:
    sec: 1724942386
    nanosec: 322588094
  frame_id: ''
raw: mid:-1;x:-100;y:-100;z:-100;mpry:-1,-1,-1;pitch:-1;roll:-5;yaw:116;vgx:0;vgy:0;vgz:1;templ:80;temph:82;tof:84;h:50;bat:53;baro:1...
sdk: 2
pitch: -1
roll: -5
yaw: 116
vgx: 0
vgy: 0
vgz: 1
templ: 80
temph: 82
tof: 84
h: 50
bat: 53
baro: 106.62999725341797
time: 218
agx: -29.0
agy: 76.0
agz: -985.0
mid: -1
x: -100
y: -100
z: -100
---
header:
  stamp:
    sec: 1724942386
    nanosec: 425151818
  frame_id: ''
raw: mid:-1;x:-100;y:-100;z:-100;mpry:-1,-1,-1;pitch:-1;roll:-5;yaw:116;vgx:0;vgy:0;vgz:1;templ:80;temph:82;tof:83;h:50;bat:53;baro:1...
sdk: 2
pitch: -1
roll: -5
yaw: 116
vgx: 0
vgy: 0
vgz: 1
templ: 80
temph: 82
tof: 83
h: 50
bat: 53
baro: 106.5999984741211
time: 218
agx: -32.0
agy: 99.0
agz: -948.0
mid: -1
x: -100
y: -100
z: -100
---
header:
  stamp:
    sec: 1724942386
    nanosec: 530039218
  frame_id: ''
raw: mid:-1;x:-100;y:-100;z:-100;mpry:-1,-1,-1;pitch:-1;roll:-5;yaw:116;vgx:0;vgy:0;vgz:1;templ:80;temph:82;tof:78;h:50;bat:53;baro:1...
sdk: 2
pitch: -1
roll: -5
yaw: 116
vgx: 0
vgy: 0
vgz: 1
templ: 80
temph: 82
tof: 78
h: 50
bat: 53
baro: 106.51000213623047
time: 218
agx: -19.0
agy: 84.0
agz: -1026.0
mid: -1
x: -100
y: -100
z: -100
---
header:
  stamp:
    sec: 1724942386
    nanosec: 630253748
  frame_id: ''
raw: mid:-1;x:-100;y:-100;z:-100;mpry:-1,-1,-1;pitch:-1;roll:-5;yaw:117;vgx:0;vgy:0;vgz:1;templ:80;temph:82;tof:80;h:40;bat:53;baro:1...
sdk: 2
pitch: -1
roll: -5
yaw: 117
vgx: 0
vgy: 0
vgz: 1
templ: 80
temph: 82
tof: 80
h: 40
bat: 53
baro: 106.5199966430664
time: 218
agx: 5.0
agy: 57.0
agz: -1005.0
mid: -1
x: -100
y: -100
z: -100
---
header:
  stamp:
    sec: 1724942386
    nanosec: 731443563
  frame_id: ''
raw: mid:-1;x:-100;y:-100;z:-100;mpry:-1,-1,-1;pitch:0;roll:-4;yaw:116;vgx:0;vgy:0;vgz:0;templ:80;temph:82;tof:78;h:40;bat:53;baro:10...
sdk: 2
pitch: 0
roll: -4
yaw: 116
vgx: 0
vgy: 0
vgz: 0
templ: 80
temph: 82
tof: 78
h: 40
bat: 53
baro: 106.54000091552734
time: 218
agx: -24.0
agy: 103.0
agz: -973.0
mid: -1
x: -100
y: -100
z: -100
---
header:
  stamp:
    sec: 1724942386
    nanosec: 833448638
  frame_id: ''
raw: mid:-1;x:-100;y:-100;z:-100;mpry:-1,-1,-1;pitch:0;roll:-4;yaw:116;vgx:0;vgy:0;vgz:0;templ:80;temph:82;tof:78;h:40;bat:53;baro:10...
sdk: 2
pitch: 0
roll: -4
yaw: 116
vgx: 0
vgy: 0
vgz: 0
templ: 80
temph: 82
tof: 78
h: 40
bat: 53
baro: 106.5
time: 219
agx: -19.0
agy: 79.0
agz: -1001.0
mid: -1
x: -100
y: -100
z: -100
---
header:
  stamp:
    sec: 1724942386
    nanosec: 935320893
  frame_id: ''
raw: mid:-1;x:-100;y:-100;z:-100;mpry:-1,-1,-1;pitch:0;roll:-4;yaw:116;vgx:0;vgy:0;vgz:0;templ:80;temph:82;tof:76;h:40;bat:53;baro:10...
sdk: 2
pitch: 0
roll: -4
yaw: 116
vgx: 0
vgy: 0
vgz: 0
templ: 80
temph: 82
tof: 76
h: 40
bat: 53
baro: 106.51000213623047
time: 219
agx: -20.0
agy: 96.0
agz: -1017.0
mid: -1
x: -100
y: -100
z: -100
---
header:
  stamp:
    sec: 1724942387
    nanosec: 37444230
  frame_id: ''
raw: mid:-1;x:-100;y:-100;z:-100;mpry:-1,-1,-1;pitch:-1;roll:-5;yaw:116;vgx:0;vgy:0;vgz:0;templ:80;temph:82;tof:79;h:40;bat:53;baro:1...
sdk: 2
pitch: -1
roll: -5
yaw: 116
vgx: 0
vgy: 0
vgz: 0
templ: 80
temph: 82
tof: 79
h: 40
bat: 53
baro: 106.44999694824219
time: 219
agx: -60.0
agy: 100.0
agz: -941.0
mid: -1
x: -100
y: -100
z: -100
---
